index,station_no,class,Diff,name,lat,lng
0,1,0,0.0,捷運市政府站(3號出口),25.04085789,121.5679044
1,61,1,29268.0,台灣科技大學,25.0131,121.539723
2,36,2,50919.0,臺大資訊大樓,25.02101,121.54153000000001
3,500101022,3,74497.0,捷運公館站(2號出口),25.01491,121.53438
4,134,4,92522.0,捷運芝山站(2號出口),25.103360000000002,121.52262900000001
5,97,5,108865.0,捷運劍潭站(2號出口),25.082825,121.524721
6,132,6,125658.0,羅斯福新生南路口,25.01603085,121.5331757
7,6,7,145955.0,臺北南山廣場,25.034047,121.565973
8,5,8,161916.0,興雅國中,25.03656389,121.56866389999999
9,45,9,175803.0,捷運公館站(2號出口),25.01476,121.53453799999998
10,291,10,189531.0,捷運松山站(3號出口),25.049616,121.577459
11,78,11,202910.0,捷運圓山站(2號出口),25.071824,121.519287
12,94,12,215348.0,捷運景美站,24.993254,121.541059
13,202,13,226787.0,捷運關渡站,25.124646,121.46733600000002
14,49,14,243579.0,龍門廣場,25.040901,121.548252
15,175,15,254295.0,捷運南京復興站(5號出口),25.051617999999998,121.544847
16,12,16,266922.0,臺北醫學大學,25.026679,121.561747
17,117,17,281198.0,捷運北投站,25.132581,121.498618
18,93,18,293052.0,吳興公車總站,25.023877,121.56983600000001
19,152,19,305450.0,百齡國小,25.08521,121.519175
20,313,20,318855.0,光華商場,25.04515,121.532738
21,215,21,331321.0,捷運北門站(3號出口),25.04993,121.51036699999999
22,293,22,342152.0,自來水園區,25.013284,121.53003700000001
23,139,23,352805.0,永樂市場,25.054501000000002,121.510549
24,119,24,365519.0,捷運劍南路站(2號出口),25.08418,121.555116
25,27,25,376244.0,捷運南港展覽館站(5號出口),25.05469,121.61668999999999
26,289,26,385786.0,牯嶺公園,25.023377,121.51883500000001
27,364,27,396655.0,嘉興公園,25.02109,121.55219
28,67,28,408846.0,捷運臺大醫院(4號出口),25.042973,121.516428
29,115,29,419067.0,臺北轉運站,25.048222,121.520526
30,164,30,430486.0,捷運奇岩站,25.126286,121.500801
31,122,31,441596.0,捷運港墘站(2號出口),25.079666,121.57583999999999
32,279,32,452521.0,南港車站(興華路),25.053432,121.60633100000001
33,88,33,461937.0,捷運象山站,25.032922,121.57087
34,37,34,470981.0,捷運東門站(4號出口),25.0337,121.52898799999998
35,306,35,479929.0,捷運古亭站(6號出口),25.027781,121.52198
36,2,36,491030.0,捷運國父紀念館站(2號出口),25.041254000000002,121.55742
37,173,37,501755.0,捷運松江南京站(7號出口),25.052181,121.53321100000001
38,146,38,514124.0,捷運士林站(2號出口),25.092546,121.526556
39,24,39,524652.0,信義建國路口,25.03293,121.53747
40,87,40,535123.0,捷運大安站,25.033078,121.543057
41,70,41,546528.0,捷運台北101/世貿站,25.032752,121.561645
42,83,42,559386.0,捷運大安森林公園站,25.033344,121.534236
43,30,43,574597.0,基隆長興路口,25.017054,121.544352
44,89,44,585675.0,和平重慶路口,25.027323000000003,121.51638500000001
45,285,45,596485.0,螢橋國小,25.025966,121.51377
46,110,46,608425.0,文湖國小,25.086376,121.56088799999999
47,249,47,616976.0,中華桂林路口,25.037706,121.506624
48,223,48,625203.0,清江國小,25.1274,121.507267
49,22,49,633899.0,松山車站,25.048824,121.57845
50,133,49,633899.0,蘭興公園,25.111839,121.525888
51,112,50,644573.0,捷運新北投站,25.137456,121.503124
52,35,51,653018.0,捷運行天宮站(3號出口),25.059978,121.533302
53,66,51,653018.0,師範大學公館校區,25.007528,121.53718799999999
54,13,52,662163.0,福德公園,25.03809,121.58367
55,241,52,662163.0,林口公園,25.038943,121.579146
56,308,53,673037.5,西松高中,25.055672,121.567127
57,10,54,681760.8333333335,台北市災害應變中心,25.02866111,121.56611670000001
58,301,54,681760.8333333335,林森長春路口,25.055062,121.525383
59,399,54,681760.8333333335,和平龍泉街口,25.026404,121.52946000000001
60,71,55,690981.1666666667,捷運信義安和站(4號出口),25.032985,121.554204
61,108,56,699640.6666666667,臺北孔廟,25.073306,121.51584299999999
62,270,56,699640.6666666667,雨農國小,25.105429,121.52921699999999
63,25,57,708172.6666666667,永吉松信路口,25.04543,121.57205
64,387,57,708172.6666666667,吳興街260巷,25.0261,121.56316000000001
65,62,58,716615.6666666667,南昌公園,25.026826999999997,121.52025800000001
66,138,59,725508.6666666667,捷運永春站(2號出口),25.040557999999997,121.575372
67,54,60,733695.6666666667,臺北市立圖書館(總館),25.028798000000002,121.538073
68,81,61,742894.6666666667,捷運台電大樓站(2號出口),25.020547,121.528552
69,332,62,751417.6666666667,捷運中山站(2號出口),25.05225,121.52193
70,14,63,762003.6666666667,榮星花園,25.064239999999998,121.54037
71,11,64,770490.6666666667,三張犁,25.034937,121.55762
72,181,65,780048.6666666667,建國和平路口,25.02585,121.537383
73,26,66,790262.6666666667,捷運昆陽站(1號出口),25.050142,121.592375
74,275,67,799268.6666666667,西本願寺廣場,25.040988,121.50768799999999
75,20,68,808437.6666666667,捷運科技大樓站,25.025896,121.54329299999999
76,314,69,817580.6666666667,敦化長春路口,25.053614000000003,121.54871999999999
77,65,70,827067.6666666667,青年公園3號出口,25.022725,121.50270800000001
78,84,71,836171.6666666667,復華花園新城,25.029705,121.502899
79,16,72,845315.6666666667,松山家商,25.036084,121.57913500000001
80,162,73,857531.6666666667,捷運中山國小站(4號出口),25.062924,121.52772
81,140,74,866835.1666666667,捷運大橋頭站(2號出口),25.063404000000002,121.51290900000001
82,500119050,74,866835.1666666667,臺大小福樓東側,25.01846,121.5376
83,32,75,876488.6666666667,捷運六張犁站,25.023884,121.55316100000002
84,57,75,876488.6666666667,新生和平路口,25.026217000000003,121.53518999999999
85,307,75,876488.6666666667,仁愛安和路口,25.037570000000002,121.552076
86,42,76,885240.0000000001,捷運後山埤站(1號出口),25.04431,121.58174
87,304,76,885240.0000000001,金華公園,25.029902,121.53123500000001
88,63,76,885240.0000000001,仁愛醫院,25.037569,121.54563200000001
89,31,77,894140.0000000001,辛亥新生路口,25.022413,121.53456000000001
90,114,78,902474.0,蘭雅公園,25.109907999999997,121.53038600000001
91,182,78,902474.0,捷運古亭站(2號出口),25.0253,121.523537
92,280,79,911506.5,士林新天地,25.089033999999998,121.51732
93,401,79,911506.5,南京新生路口,25.051944,121.52766100000001
94,56,80,919665.5,仁愛林森路口,25.038954,121.52233400000001
95,244,80,919665.5,復興市民路口,25.045907999999997,121.54373600000001
96,187,80,919665.5,仁愛延吉街口,25.037465,121.555769
97,259,80,919665.5,南京遼寧街口,25.051761,121.54216799999999
98,395,80,919665.5,安強公園,25.036844,121.57541299999998
99,85,80,919665.5,信義敦化路口,25.033362,121.54911000000001
100,311,80,919665.5,捷運忠孝新生站(2號出口),25.042392,121.532229
101,172,80,919665.5,捷運南京三民站(1號出口),25.051562,121.562891
102,500101001,80,919665.5,捷運科技大樓站,25.02605,121.5436
103,183,80,919665.5,圓環站,25.05379,121.514179
104,60,81,927793.7,中山行政中心,25.064317000000003,121.53348700000001
105,218,81,927793.7,松山高中,25.043298999999998,121.564108
106,29,82,936164.2,金山愛國路口,25.03164,121.52655
107,294,82,936164.2,朱崙商場,25.047617000000002,121.54043100000001
108,52,82,936164.2,建國長春路口,25.054761,121.536925
109,231,82,936164.2,內政部營建署,25.047805,121.545022
110,79,83,945211.95,捷運民權西路站(3號出口),25.061285,121.520205
111,104,83,945211.95,台北花木批發市場,25.004023,121.54073999999999
112,118,84,954031.45,大業大同街口,25.136929000000002,121.499152
113,169,84,954031.45,植物園,25.030015,121.509813
114,403,84,954031.45,捷運內湖站(1號出口),25.083868,121.593929
115,404,84,954031.45,民族延平路口,25.068653,121.51056899999999
116,303,85,963980.45,安泰街83巷,25.076691,121.617085
117,76,86,973113.95,新生長春路口,25.056387,121.52752199999999
118,103,86,973113.95,萬華車站,25.033639,121.503028
119,500119048,86,973113.95,臺大大一女舍北側,25.01547,121.53436
120,176,86,973113.95,興安華城,25.055997,121.542318
121,40,87,981688.2681818184,玉成公園,25.04287,121.5864
122,357,87,981688.2681818184,松友公園,25.034229999999997,121.57636000000001
123,75,87,981688.2681818184,基隆光復路口,25.0300508,121.557635
124,251,87,981688.2681818184,華齡公園,25.083023,121.520692
125,312,87,981688.2681818184,捷運信義安和站(1號出口),25.033323,121.55278700000001
126,92,87,981688.2681818184,開封西寧路口,25.046618,121.50716899999999
127,287,87,981688.2681818184,第二果菜批發市場,25.066423999999998,121.53735400000001
128,135,87,981688.2681818184,捷運石牌站(2號出口),25.114513,121.515677
129,388,87,981688.2681818184,景華街128巷口,24.995563,121.54709199999999
130,149,87,981688.2681818184,北投運動中心,25.116665,121.509621
131,389,87,981688.2681818184,福德國小,25.038324,121.58624499999999
132,68,88,989948.5409090909,國興青年路口,25.025865,121.50653600000001
133,147,88,989948.5409090909,士林運動中心,25.089175,121.52181399999999
134,225,88,989948.5409090909,臥龍樂業街口,25.0186,121.55483899999999
135,257,88,989948.5409090909,錦德公園,25.023316,121.49263700000002
136,261,88,989948.5409090909,健康新城,25.054095,121.560928
137,344,88,989948.5409090909,捷運忠孝復興站(5號出口),25.04264,121.54401000000001
138,86,89,998650.7631313131,民權復興路口,25.062344,121.545138
139,309,89,998650.7631313131,三軍總醫院(松山分院),25.054470000000002,121.55609799999999
140,500101027,89,998650.7631313131,臺灣科技大學後門,25.01182,121.54165
141,144,90,1007176.42979798,國立政治大學,24.988363,121.576536
142,4,91,1015338.7357916707,市民廣場,25.03603611,121.562325
143,253,91,1015338.7357916707,芝山抽水站,25.101423,121.52798999999999
144,113,91,1015338.7357916707,仁愛逸仙路口,25.037724,121.561178
145,372,91,1015338.7357916707,重慶民族路口,25.06825,121.51359
146,222,91,1015338.7357916707,撫順公園,25.064107999999997,121.522065
147,340,91,1015338.7357916707,南京光復路口,25.05143,121.55716000000001
148,300,91,1015338.7357916707,信義基隆路口,25.033209,121.55873100000001
149,258,91,1015338.7357916707,聯合醫院中興院區,25.052096,121.507979
150,248,91,1015338.7357916707,喬治工商,25.027123,121.55556599999998
151,351,91,1015338.7357916707,中山青島路口,25.04469,121.51953999999999
152,129,91,1015338.7357916707,捷運文德站(2號出口),25.078424,121.58456000000001
153,194,91,1015338.7357916707,市民林森路口,25.047957999999998,121.52438799999999
154,363,91,1015338.7357916707,復興南路一段340巷口,25.036170000000002,121.5435
155,8,91,1015338.7357916707,世貿三館,25.03521389,121.5636889
156,53,91,1015338.7357916707,八德市場,25.044781,121.53660900000001
157,106,91,1015338.7357916707,西園艋舺路口,25.032932000000002,121.497674
158,318,91,1015338.7357916707,成功金龍路口,25.084135,121.59483999999999
159,326,91,1015338.7357916707,基隆路一段101巷口,25.04525,121.56709
160,28,91,1015338.7357916707,五常公園,25.04814,121.57467
161,333,91,1015338.7357916707,復盛公園,25.047428,121.561182
162,90,91,1015338.7357916707,老松國小,25.037782999999997,121.50170800000001
163,397,91,1015338.7357916707,劍潭海外青年活動中心,25.079603,121.5237
164,290,91,1015338.7357916707,新生公園,25.068387,121.530188
165,41,91,1015338.7357916707,中研公園,25.047425,121.61370600000001
166,322,91,1015338.7357916707,永盛公園(民生東路一段23巷),25.058835000000002,121.52503999999999
167,316,91,1015338.7357916707,民有一號公園,25.060910999999997,121.54763
168,354,91,1015338.7357916707,建國濟南路口,25.040032999999998,121.53808400000001
169,51,91,1015338.7357916707,建國農安街口,25.065031,121.536775
170,391,91,1015338.7357916707,景仁公園,24.9966,121.540295
171,161,91,1015338.7357916707,大豐公園,25.131142999999998,121.503768
172,203,91,1015338.7357916707,古亭國中,25.024487,121.51057
173,166,91,1015338.7357916707,臺北市立景美女中,24.980601999999998,121.556177
174,324,91,1015338.7357916707,市立圖書館葫蘆堵分館,25.08221,121.5108
175,348,91,1015338.7357916707,民生立體停車場,25.058522,121.55941999999999
176,170,91,1015338.7357916707,新東公園,25.059245,121.56888300000001
177,188,91,1015338.7357916707,社子國小,25.090293,121.50188999999999
178,43,91,1015338.7357916707,凌雲市場,25.035639,121.614154
179,243,91,1015338.7357916707,社子公園,25.090201999999998,121.50621899999999
180,330,91,1015338.7357916707,迪化休閒運動公園,25.07491,121.5115
181,500101003,91,1015338.7357916707,國北教大實小東側門,25.02429,121.54123999999999
182,47,91,1015338.7357916707,捷運忠孝新生站(4號出口),25.042275,121.53393899999999
183,99,91,1015338.7357916707,捷運雙連站(2號出口),25.057866,121.520711
184,101,91,1015338.7357916707,華山文創園區,25.043668,121.52848700000001
185,185,91,1015338.7357916707,?公公園,25.042342,121.54605
186,240,91,1015338.7357916707,南京建國路口,25.052141,121.53680200000001
187,378,91,1015338.7357916707,陽光街321巷口,25.073193,121.57869099999999
188,500101002,91,1015338.7357916707,復興南路二段273號前,25.02565,121.54356999999999
189,500101017,91,1015338.7357916707,羅斯福路三段269巷5號前,25.01913,121.53079
190,500119062,91,1015338.7357916707,臺大公館停車場西北側,25.01345,121.53798
191,500101020,91,1015338.7357916707,溫州停車場,25.02093,121.5331
192,500119080,91,1015338.7357916707,臺大小小福西南側,25.01539,121.53686
193,1289,91,1015338.7357916707,忠山市民活動中心,25.078201999999997,121.62449299999999
194,269,91,1015338.7357916707,三軍總醫院,25.070723,121.590304
195,500101018,91,1015338.7357916707,溫州公園,25.01895,121.53156000000001
196,500101093,91,1015338.7357916707,大安區健康服務中心,25.021469,121.544069
197,500101008,91,1015338.7357916707,新生南路三段52號前,25.02112,121.53407
198,500101092,91,1015338.7357916707,和平實小東北側,25.021641,121.54704
199,500119063,91,1015338.7357916707,臺大第二行政大樓南側,25.016029999999997,121.53635
200,500119065,91,1015338.7357916707,臺大二號館,25.01699,121.53573999999999
201,265,91,1015338.7357916707,中央北路四段30巷口,25.135394,121.478
202,283,91,1015338.7357916707,中央北路四段540巷口,25.127959,121.4677
203,500106002,91,1015338.7357916707,汀州思源街口東南側,25.014697,121.531908
204,500101004,91,1015338.7357916707,和平公園東側,25.02351,121.54281999999999
205,500119056,91,1015338.7357916707,臺大農化新館西側,25.016270000000002,121.53535
206,500101006,91,1015338.7357916707,復興南路二段280號前,25.02429,121.54328000000001
207,500101007,91,1015338.7357916707,復興南路二段340巷口,25.02253,121.54326
208,500101015,91,1015338.7357916707,大安運動中心停車場,25.020348000000002,121.546446
209,500101019,91,1015338.7357916707,和平臥龍街口,25.024461,121.546705
210,500119057,91,1015338.7357916707,臺大五號館西側,25.01666,121.53718
211,500119082,91,1015338.7357916707,臺大四號館東北側,25.01703,121.53781000000001
212,500119073,91,1015338.7357916707,臺大校史館南側,25.01751,121.53568999999999
213,196,91,1015338.7357916707,新湖國小,25.068744,121.58923300000001
214,246,91,1015338.7357916707,國立故宮博物院,25.098743,121.54808600000001
215,500101035,91,1015338.7357916707,臺大土木研究大樓前,25.017870000000002,121.5476
216,500119059,91,1015338.7357916707,臺大共同教室北側,25.01595,121.53791000000001
217,500119081,91,1015338.7357916707,臺大教研館北側,25.013370000000002,121.53908999999999
218,500119064,91,1015338.7357916707,臺大明達館機車停車場,25.01754,121.54398
219,500119074,91,1015338.7357916707,臺大生命科學館西北側,25.01548,121.53825
220,500119089,91,1015338.7357916707,臺大獸醫館南側,25.01791,121.54241999999999
221,500119008,91,1015338.7357916707,臺大檔案展示館,25.01391,121.52895
222,500119072,91,1015338.7357916707,臺大原分所北側,25.018810000000002,121.53868
223,500119069,91,1015338.7357916707,臺大思亮館東南側,25.02074,121.53906
224,500119084,91,1015338.7357916707,臺大鄭江樓北側,25.019000000000002,121.54305
225,500101037,91,1015338.7357916707,臺大國青大樓宿舍前,25.02076,121.54432
226,500119007,91,1015338.7357916707,臺大水源修齊會館,25.014110000000002,121.52996999999999
227,374,91,1015338.7357916707,麗湖國小,25.073322,121.602225
228,402,91,1015338.7357916707,下灣公園,25.065159,121.595611
229,211,91,1015338.7357916707,星雲金湖街口,25.080915,121.59733899999999
230,356,91,1015338.7357916707,臺北市網球中心,25.0674,121.59749
231,500101040,91,1015338.7357916707,臺大綜合體育館停車場前,25.0222,121.53626000000001
232,260,91,1015338.7357916707,民權瑞光路口,25.068616,121.583991
233,335,91,1015338.7357916707,景文中學,24.986301,121.56785500000001
234,500101030,91,1015338.7357916707,臺大永齡生醫工程館,25.0136,121.54656000000001
235,180,91,1015338.7357916707,福華商場,25.06877,121.59265400000001
236,239,91,1015338.7357916707,新明路262巷口,25.056641,121.583403
237,500101021,91,1015338.7357916707,銘傳國小側門,25.01385,121.53549
238,500101011,91,1015338.7357916707,羅斯福路三段333巷9號旁,25.017570000000003,121.53271000000001
239,500106003,91,1015338.7357916707,捷運公館站(1號出口),25.014529,121.534374
240,500101012,91,1015338.7357916707,辛亥路一段30號前,25.01986,121.52982
241,500101016,91,1015338.7357916707,羅斯福路三段245號前,25.019270000000002,121.52989
242,207,91,1015338.7357916707,福安國中,25.103242,121.487477
243,102,91,1015338.7357916707,臺北市客家文化主題公園,25.020429999999998,121.525322
244,141,91,1015338.7357916707,文山行政中心,24.989902,121.569984
245,500101013,91,1015338.7357916707,和平復興路口西北側,25.02543,121.54332
246,247,91,1015338.7357916707,木柵公園,24.987144,121.560627
247,500101091,91,1015338.7357916707,國北教大側門南側,25.022864000000002,121.546622
248,325,91,1015338.7357916707,南京東路六段368巷,25.05827,121.58707
249,500119006,91,1015338.7357916707,臺大卓越研究大樓,25.01466,121.52917
250,366,91,1015338.7357916707,碧湖公園,25.07988,121.58287
251,233,91,1015338.7357916707,捷運忠義站,25.131411,121.47415500000001
252,264,91,1015338.7357916707,秀山區民活動中心,25.145936,121.49300900000001
253,381,91,1015338.7357916707,民權東路六段15巷,25.06853,121.578125
254,500101036,91,1015338.7357916707,臺大萬才館前,25.02032,121.54496999999999
255,500119086,91,1015338.7357916707,臺大圖資系館北側,25.01804,121.53928
256,500119054,91,1015338.7357916707,臺大心理系館南側,25.01941,121.5404
257,500119068,91,1015338.7357916707,臺大社會系館南側,25.01987,121.54175
258,500119044,91,1015338.7357916707,臺大仰萃樓東南側,25.01408,121.53759
259,500119055,91,1015338.7357916707,臺大樂學館東側,25.01793,121.53585
260,500119046,91,1015338.7357916707,臺大管理學院二館北側,25.01355,121.53673
261,500119060,91,1015338.7357916707,臺大共同教室東南側,25.01566,121.53786000000001
262,500101034,91,1015338.7357916707,臺大動物醫院前,25.01576,121.54291
263,500119047,91,1015338.7357916707,臺大土木系館,25.01761,121.53844
264,500119078,91,1015338.7357916707,臺大森林館北側,25.017039999999998,121.53888
265,500119076,91,1015338.7357916707,臺大博理館西側,25.01922,121.54195
266,500101014,91,1015338.7357916707,羅斯福路三段311號前,25.01717,121.53201999999999
267,500106004,91,1015338.7357916707,捷運公館站(4號出口),25.015069,121.533828
268,500101038,91,1015338.7357916707,臺大社科院圖書館前,25.02101,121.54283999999998
269,500101039,91,1015338.7357916707,臺大法人語言訓練中心前,25.02104,121.54081000000001
270,500101005,91,1015338.7357916707,辛亥復興路口西北側,25.02153,121.54298999999999
271,500119070,91,1015338.7357916707,臺大椰林小舖,25.015610000000002,121.53583
272,500101029,91,1015338.7357916707,臺大環研大樓,25.01234,121.54503000000001
273,228,91,1015338.7357916707,捷運萬芳社區站,24.998811,121.56788999999999
274,393,91,1015338.7357916707,內溝溪生態展示館,25.087217000000003,121.623062
275,184,91,1015338.7357916707,劍潭社區,25.084759,121.537892
276,390,91,1015338.7357916707,稻香重三路口,25.139937,121.489594
277,500101041,91,1015338.7357916707,辛亥新生路口東南側,25.02218,121.53473999999999
278,500119045,91,1015338.7357916707,臺大農業陳列館北側,25.01839,121.53403999999999
279,358,91,1015338.7357916707,新明成功路口,25.060579999999998,121.5911
280,256,91,1015338.7357916707,中山中正路口,25.096507,121.527526
281,342,91,1015338.7357916707,文林建民路口,25.107789999999998,121.51468
282,500101025,91,1015338.7357916707,臺灣科技大學側門,25.01295,121.53973
283,500101042,91,1015338.7357916707,基隆長興路口東側,25.01727,121.54471000000001
284,355,91,1015338.7357916707,福山公園,25.04478,121.61758999999999
285,500101094,91,1015338.7357916707,辛亥泰順街口,25.021929999999998,121.53165
286,383,91,1015338.7357916707,一壽橋,24.978479999999998,121.55545
287,384,91,1015338.7357916707,松基公園,25.05491,121.5448
288,500101024,91,1015338.7357916707,臺灣科技大學正門,25.01451,121.54142
289,136,91,1015338.7357916707,國立臺北護理健康大學,25.117457,121.51668000000001
290,500101031,91,1015338.7357916707,臺大男七舍前,25.01537,121.54698
291,500119058,91,1015338.7357916707,臺大舊體育館西側,25.0198,121.53583
292,500119051,91,1015338.7357916707,臺大立體機車停車場,25.01616,121.54251000000001
293,209,91,1015338.7357916707,捷運復興崗站,25.137837,121.486071
294,323,91,1015338.7357916707,新興公園,25.061567999999998,121.52439199999999
295,365,91,1015338.7357916707,陽明大學,25.119120000000002,121.51223
296,500101009,91,1015338.7357916707,新生南路三段66號前,25.01976,121.53383999999998
297,500101023,91,1015338.7357916707,第二學生活動中心,25.012439999999998,121.53661000000001
298,380,91,1015338.7357916707,塔悠疏散門,25.064713,121.567899
299,500106001,91,1015338.7357916707,臺北自來水事業處,25.013741,121.53068
300,337,91,1015338.7357916707,彩虹橋,25.05301,121.57592
301,234,91,1015338.7357916707,永欣綠地,25.124162,121.526071
302,278,91,1015338.7357916707,明美公園,25.062557,121.58606499999999
303,157,91,1015338.7357916707,麗山國小,25.082703,121.571467
304,212,91,1015338.7357916707,北安大直街口,25.084223,121.549452
305,500101010,91,1015338.7357916707,新生南路三段82號前,25.01894,121.53361000000001
306,500119079,91,1015338.7357916707,臺大一號館,25.01698,121.53455
307,50,91,1015338.7357916707,民權運動公園,25.062002,121.56018600000002
308,500119009,91,1015338.7357916707,臺大水源舍區B棟,25.01525,121.53008999999999
309,500119005,91,1015338.7357916707,臺大水源舍區A棟,25.01493,121.53043999999998
310,151,91,1015338.7357916707,考試院,24.987507,121.54982700000001
311,284,91,1015338.7357916707,華聲公園,25.096166,121.52209599999999
312,96,91,1015338.7357916707,三民公園,25.061567,121.566558
313,267,91,1015338.7357916707,八德中坡路口,25.050620000000002,121.58019399999999
314,319,91,1015338.7357916707,民族林森路口,25.068507,121.525322
315,262,91,1015338.7357916707,永安藝文館-表演36房,24.984144,121.56906399999998
316,377,91,1015338.7357916707,南港路二段178巷口,25.053675,121.59969299999999
317,124,91,1015338.7357916707,振華公園,25.115863,121.51816299999999
318,216,91,1015338.7357916707,培英公園,25.082553,121.544601
319,274,91,1015338.7357916707,扶輪親恩公園,25.066997,121.57983300000001
320,368,91,1015338.7357916707,臺灣戲曲中心,25.102079999999997,121.51978999999999
321,500119077,91,1015338.7357916707,臺大博雅館西側,25.0189,121.536
322,44,91,1015338.7357916707,捷運南港軟體園區站(2號出口),25.05973,121.61618700000001
323,201,91,1015338.7357916707,東陽公園,25.057164,121.597924
324,336,91,1015338.7357916707,承德路三段8巷口,25.06382,121.51815
325,171,91,1015338.7357916707,文山運動中心,24.996842,121.559651
326,214,91,1015338.7357916707,基河一期國宅,25.055935,121.578645
327,192,91,1015338.7357916707,捷運葫洲站(1號出口),25.072485,121.607955
328,398,91,1015338.7357916707,聯合醫院陽明院區,25.104546,121.531949
329,142,91,1015338.7357916707,捷運木柵站,24.997996,121.57444
330,268,91,1015338.7357916707,南港高工,25.056655,121.607055
331,143,91,1015338.7357916707,捷運動物園站(2號出口),24.997659,121.57875200000001
332,206,91,1015338.7357916707,捷運辛亥站,25.005385999999998,121.55716000000001
333,73,91,1015338.7357916707,酒泉延平路口,25.072228,121.510195
334,500119066,91,1015338.7357916707,臺大凝態館南側,25.02157,121.53633
335,227,91,1015338.7357916707,麗山高中,25.084244,121.57668000000001
336,500119087,91,1015338.7357916707,臺大總圖書館西南側,25.0169,121.54031
337,500101033,91,1015338.7357916707,臺大男六舍前,25.01664,121.5452
338,191,91,1015338.7357916707,捷運大湖公園站(2號出口),25.083873,121.60206000000001
339,116,91,1015338.7357916707,福林公園,25.096122,121.53021499999998
340,329,91,1015338.7357916707,樂群二明水路口,25.079829999999998,121.55236000000001
341,165,91,1015338.7357916707,捷運唭哩岸站(2號出口),25.120788,121.505693
342,299,91,1015338.7357916707,萬華國中,25.029264,121.499358
343,281,91,1015338.7357916707,松江公園,25.050245,121.532725
344,382,91,1015338.7357916707,聯合醫院和平院區,25.03516,121.50639
345,328,91,1015338.7357916707,一江公園,25.053160000000002,121.53146000000001
346,271,91,1015338.7357916707,伊通長安路口,25.048334,121.53469299999999
347,347,91,1015338.7357916707,博愛寶慶路口,25.041339999999998,121.51135
348,254,91,1015338.7357916707,立功立德路口,25.125377,121.47148200000001
349,375,91,1015338.7357916707,銘傳大學,25.087714000000002,121.526766
350,302,91,1015338.7357916707,敦北公園,25.060745999999998,121.550711
351,500119085,91,1015338.7357916707,臺大電機二館東南側,25.01857,121.54247
352,500119090,91,1015338.7357916707,臺大新體育館東南側,25.02112,121.53591000000002
353,500119061,91,1015338.7357916707,臺大鹿鳴堂東側,25.01511,121.53786000000001
354,500119088,91,1015338.7357916707,臺大黑森林西側,25.01995,121.54347
355,178,91,1015338.7357916707,延平國宅,25.078908,121.510306
356,193,91,1015338.7357916707,舊莊區民活動中心,25.041276999999997,121.61935
357,317,91,1015338.7357916707,雙園國中,25.026823,121.491675
358,69,91,1015338.7357916707,興豐公園,24.999837,121.54777800000001
359,109,91,1015338.7357916707,林安泰古厝,25.071606,121.530805
360,77,91,1015338.7357916707,民生活動中心,25.059147,121.56296999999999
361,385,91,1015338.7357916707,和興路26巷口,24.9856,121.54531000000001
362,208,91,1015338.7357916707,龍山國小,25.035555,121.495342
363,224,91,1015338.7357916707,社正公園,25.088243,121.510535
364,125,91,1015338.7357916707,華西公園,25.038609,121.49849499999999
365,237,91,1015338.7357916707,文山第二行政中心,25.001148999999998,121.551418
366,98,91,1015338.7357916707,羅斯福景隆街口,24.999378,121.54019699999999
367,205,91,1015338.7357916707,木柵光輝路口,24.988241,121.55561000000002
368,168,91,1015338.7357916707,河堤國小,25.022879999999997,121.522855
369,272,91,1015338.7357916707,忠順區民活動中心,24.984707,121.563125
370,296,91,1015338.7357916707,萬和二號公園,25.001545,121.536446
371,370,91,1015338.7357916707,新和國小,25.02656,121.50242
372,500101026,91,1015338.7357916707,公館公園,25.01137,121.54061999999999
373,500119043,91,1015338.7357916707,臺大男八舍東側,25.01729,121.54531000000001
374,58,91,1015338.7357916707,捷運善導寺站(1號出口),25.045267000000003,121.5222
375,341,91,1015338.7357916707,捷運芝山站(1號出口),25.100939999999998,121.52243
376,177,91,1015338.7357916707,葫蘆國小,25.082538,121.50749499999999
377,18,91,1015338.7357916707,臺北市藝文推廣處,25.049408,121.55261000000002
378,360,91,1015338.7357916707,民權建國路口,25.062520000000003,121.53753999999999
379,292,91,1015338.7357916707,合心廣場,25.046360999999997,121.582848
380,352,91,1015338.7357916707,民權迪化街口,25.06318,121.50943999999998
381,159,91,1015338.7357916707,捷運西湖站(1號出口),25.082866,121.566695
382,321,91,1015338.7357916707,莒光大埔街口,25.031334,121.50508500000001
383,379,91,1015338.7357916707,春光公園,25.042619000000002,121.58076200000001
384,298,91,1015338.7357916707,太原五原路口,25.056458,121.516976
385,373,91,1015338.7357916707,中崙福成宮,25.04525,121.54663500000001
386,19,91,1015338.7357916707,象山公園,25.02863,121.56981
387,130,91,1015338.7357916707,羅斯福寧波東街口,25.031445,121.519411
388,153,91,1015338.7357916707,蔣渭水紀念公園,25.059885,121.516299
389,400,91,1015338.7357916707,和平敦化路口,25.02444,121.549076
390,33,91,1015338.7357916707,中崙高中,25.048779999999997,121.56087
391,95,91,1015338.7357916707,東園國小,25.023393,121.497679
392,148,91,1015338.7357916707,捷運明德站,25.110331,121.518316
393,255,91,1015338.7357916707,光復南路22巷口,25.046914,121.557674
394,315,91,1015338.7357916707,捷運萬隆站(1號出口),25.001447,121.53903700000001
395,250,91,1015338.7357916707,忠孝東路三段217巷口,25.04184,121.539873
396,396,91,1015338.7357916707,新東街51巷口,25.061501,121.563318
397,213,91,1015338.7357916707,蘭雅國小,25.107782,121.52310700000001
398,331,91,1015338.7357916707,民族玉門街口,25.06859,121.51973999999998
399,338,91,1015338.7357916707,成德國中,25.04573,121.58793999999999
400,362,91,1015338.7357916707,和平金山路口,25.02672,121.52533000000001
401,286,91,1015338.7357916707,德明財經科技大學,25.086372,121.56571299999999
402,232,91,1015338.7357916707,中山天母路口,25.118843,121.529738
403,310,91,1015338.7357916707,國立臺北大學(臺北校區),25.057923000000002,121.542732
404,500119053,91,1015338.7357916707,臺大天文數學館南側,25.021079999999998,121.53783
405,500119083,91,1015338.7357916707,臺大新生教室南側,25.0196,121.53846000000001
406,9,91,1015338.7357916707,松德站,25.031785,121.57448000000001
407,230,91,1015338.7357916707,湖光國宅,25.075366,121.58081100000001
408,297,91,1015338.7357916707,長沙公園,25.041701999999997,121.499922
409,500101032,91,1015338.7357916707,臺大男一舍前,25.016370000000002,121.54535
410,500119052,91,1015338.7357916707,臺大工綜館南側,25.01857,121.54059
411,121,91,1015338.7357916707,龍江南京路口,25.052979999999998,121.540568
412,156,91,1015338.7357916707,東湖國小,25.06853,121.61538
413,386,91,1015338.7357916707,錦州吉林路口,25.06029,121.52981000000001
414,236,91,1015338.7357916707,關渡自然公園,25.119292,121.46913799999999
415,500101028,91,1015338.7357916707,臺大醫學院附設癌醫中心,25.01426,121.54382
416,189,91,1015338.7357916707,金瑞公園(金龍路),25.087987,121.58781
417,23,91,1015338.7357916707,東新國小,25.055073999999998,121.60279799999999
418,204,91,1015338.7357916707,臺北市立大學(天母校區),25.113625,121.53742
419,345,91,1015338.7357916707,中正運動中心,25.03806,121.51943
420,107,91,1015338.7357916707,捷運小南門站(1號出口),25.036402,121.509422
421,34,91,1015338.7357916707,捷運行天宮站(1號出口),25.058369,121.53293400000001
422,59,91,1015338.7357916707,林森公園,25.052227,121.525805
423,252,91,1015338.7357916707,大安運動中心,25.020544,121.545608
424,105,91,1015338.7357916707,峨嵋停車場,25.044412,121.50540900000001
425,273,91,1015338.7357916707,芝山國小,25.110437,121.535954
426,359,91,1015338.7357916707,健安新城,25.05601,121.56358
427,74,91,1015338.7357916707,信義連雲街口,25.033817000000003,121.530547
428,320,91,1015338.7357916707,捷運南京三民站(3號出口),25.051287,121.56426200000001
429,295,91,1015338.7357916707,敦親公園,25.023473000000003,121.541083
430,350,91,1015338.7357916707,復興南路二段128巷口,25.02904,121.54336
431,349,91,1015338.7357916707,重慶酒泉街口,25.07183,121.51364
432,392,91,1015338.7357916707,南京東興路口,25.051489,121.565347
433,80,91,1015338.7357916707,華江高中,25.02751,121.495869
434,282,91,1015338.7357916707,富台公園,25.041935000000002,121.571999
435,123,91,1015338.7357916707,天母運動公園,25.116325,121.534136
436,327,91,1015338.7357916707,重慶南海路口,25.031579999999998,121.51463999999999
437,145,91,1015338.7357916707,樹德公園,25.066688,121.516149
438,158,91,1015338.7357916707,捷運東湖站,25.067026000000002,121.61355
439,190,91,1015338.7357916707,捷運大直站(3號出口),25.079278,121.546683
440,394,91,1015338.7357916707,松德虎林街口,25.038352,121.57624799999999
441,48,91,1015338.7357916707,南港車站(忠孝東路),25.05247,121.608202
442,128,91,1015338.7357916707,成功國宅,25.026808,121.546726
443,197,91,1015338.7357916707,饒河夜市(八德路側),25.049845,121.57188500000001
444,276,91,1015338.7357916707,三興公園,25.028679,121.55932
445,277,91,1015338.7357916707,中山堂,25.044091,121.51025
446,154,91,1015338.7357916707,中正基河路口,25.093396,121.51986699999999
447,343,91,1015338.7357916707,忠孝東路六段185巷口,25.049039999999998,121.58755
448,137,91,1015338.7357916707,國防大學,25.137976000000002,121.49306599999998
449,155,91,1015338.7357916707,瑞光港墘路口,25.076193,121.57505
450,500119071,91,1015338.7357916707,臺大計資中心南側,25.02036,121.53992
451,500119067,91,1015338.7357916707,臺大社科院西側,25.020529999999997,121.54145
452,72,91,1015338.7357916707,新生長安路口,25.048610999999998,121.52934599999999
453,367,91,1015338.7357916707,豐年公園,25.13597,121.497019
454,127,91,1015338.7357916707,東湖國中,25.073276999999997,121.61952099999999
455,226,91,1015338.7357916707,向陽南港路口,25.054365,121.594228
456,361,91,1015338.7357916707,振興醫院,25.1177,121.5222
457,500119049,91,1015338.7357916707,臺大女九舍西南側,25.019370000000002,121.53902
458,263,91,1015338.7357916707,至善臨溪路口,25.097103,121.542153
459,167,92,1023674.3267485581,臺北市立天文館,25.095714,121.518046
460,353,92,1023674.3267485581,紀州庵,25.02088,121.52049
461,376,92,1023674.3267485581,民生建國路口,25.057778,121.536915
462,179,93,1032544.9934152248,南港公園,25.041355,121.59073000000001
463,305,93,1032544.9934152248,碧山公園,25.087413,121.592253
464,163,94,1041661.9934152248,捷運麟光站,25.018097,121.559279
465,369,94,1041661.9934152248,世新大學,24.98862,121.54361000000002
466,39,95,1051038.9934152248,南港世貿公園,25.058000000000003,121.61421999999999
467,346,95,1051038.9934152248,陽明高中,25.09157,121.51669
468,217,96,1059382.4934152248,臺北花市,25.062645,121.57426699999999
469,91,97,1068944.7434152248,市立美術館,25.070629,121.52326799999999
470,100,97,1068944.7434152248,金山市民路口,25.045753,121.530697
471,242,97,1068944.7434152248,關渡宮,25.117472,121.46316100000001
472,220,97,1068944.7434152248,大稻埕公園,25.059162,121.510512
473,229,98,1078106.4934152248,市民太原路口,25.049394,121.51461100000002
474,500119075,99,1087403.4934152248,臺大第一活動中心西南側,25.01761,121.53995
475,288,100,1095548.4934152248,濟南紹興路口,25.041928,121.52459099999999
476,371,101,1104564.4934152248,南門國中,25.035320000000002,121.50833999999999
477,339,102,1116894.4934152248,重慶國中,25.07581,121.51816000000001
478,219,103,1126393.4934152248,大理高中,25.031147,121.49073999999999
479,186,104,1138707.4934152248,臺北市立大學,25.035414000000003,121.514218
480,195,105,1147945.4934152248,信義杭州路口(中華電信總公司),25.035851,121.523987
481,131,106,1159769.4934152248,洲子二號公園,25.079322,121.568688
482,266,106,1159769.4934152248,洲子一號公園,25.080257999999997,121.564806
483,17,107,1168876.8267485579,民生光復路口,25.05862,121.55514
484,126,107,1168876.8267485579,敦化基隆路口,25.022073000000002,121.548336
485,235,107,1168876.8267485579,市民東興路口,25.048460000000002,121.565928
486,64,108,1178320.8267485579,國家圖書館,25.037773,121.51702900000001
487,150,109,1186868.3267485579,松德公園,25.036568,121.57343
488,334,109,1186868.3267485579,敦化南路二段103巷口,25.028973,121.549024
489,238,110,1196124.8267485579,瑞湖陽光街口,25.073119000000002,121.575965
490,38,111,1205942.8267485579,臺灣師範大學(圖書館),25.026603,121.52944
491,245,112,1215821.8267485579,捷運中山國中站,25.060632000000002,121.544028
492,7,113,1225306.8267485579,信義廣場(台北101),25.03303889,121.56561940000002
493,21,114,1235846.8267485579,民生敦化路口,25.057985000000002,121.54898200000001
494,3,115,1245544.8267485579,台北市政府,25.03779722,121.56516940000002
495,111,116,1256455.8267485579,捷運忠孝復興站(2號出口),25.040184,121.543497
496,174,117,1265589.8267485579,捷運小巨蛋站(5號出口),25.051702,121.55305700000001
497,82,118,1274806.8267485579,捷運西門站(3號出口),25.041778,121.508693
498,120,119,1286149.8267485579,捷運龍山寺站(1號出口),25.035479000000002,121.50026000000001
499,55,120,1296126.8267485579,臺北田徑場,25.049505,121.54940800000001
500,221,121,1308157.8267485579,泰和公園,25.019276,121.57106999999999
501,210,122,1323738.8267485579,樂群二敬業四路口,25.079766,121.55813500000001
502,46,123,1337065.8267485579,南港國小,25.056504,121.61138899999999
