index,station_no,class,Diff,name,lat,lng
0,1,0,0.0,捷運市政府站(3號出口),25.04085789,121.5679044
1,61,1,29268.0,台灣科技大學,25.0131,121.539723
2,36,2,50919.0,臺大資訊大樓,25.02101,121.54153000000001
3,500101022,3,74497.0,捷運公館站(2號出口),25.01491,121.53438
4,134,4,92522.0,捷運芝山站(2號出口),25.103360000000002,121.52262900000001
5,97,5,108865.0,捷運劍潭站(2號出口),25.082825,121.524721
6,132,6,125658.0,羅斯福新生南路口,25.01603085,121.5331757
7,6,7,145955.0,臺北南山廣場,25.034047,121.565973
8,5,8,161916.0,興雅國中,25.03656389,121.56866389999999
9,45,9,175803.0,捷運公館站(2號出口),25.01476,121.53453799999998
10,291,10,189531.0,捷運松山站(3號出口),25.049616,121.577459
11,78,11,202910.0,捷運圓山站(2號出口),25.071824,121.519287
12,94,12,215348.0,捷運景美站,24.993254,121.541059
13,202,13,226787.0,捷運關渡站,25.124646,121.46733600000002
14,49,14,243579.0,龍門廣場,25.040901,121.548252
15,175,15,254295.0,捷運南京復興站(5號出口),25.051617999999998,121.544847
16,12,16,266922.0,臺北醫學大學,25.026679,121.561747
17,117,17,281198.0,捷運北投站,25.132581,121.498618
18,93,18,293052.0,吳興公車總站,25.023877,121.56983600000001
19,152,19,305450.0,百齡國小,25.08521,121.519175
20,313,20,318855.0,光華商場,25.04515,121.532738
21,215,21,331321.0,捷運北門站(3號出口),25.04993,121.51036699999999
22,293,22,342152.0,自來水園區,25.013284,121.53003700000001
23,139,23,352805.0,永樂市場,25.054501000000002,121.510549
24,119,24,365519.0,捷運劍南路站(2號出口),25.08418,121.555116
25,27,25,376244.0,捷運南港展覽館站(5號出口),25.05469,121.61668999999999
26,289,26,385786.0,牯嶺公園,25.023377,121.51883500000001
27,364,27,396655.0,嘉興公園,25.02109,121.55219
28,67,28,408846.0,捷運臺大醫院(4號出口),25.042973,121.516428
29,115,29,419067.0,臺北轉運站,25.048222,121.520526
30,164,30,430486.0,捷運奇岩站,25.126286,121.500801
31,122,31,441596.0,捷運港墘站(2號出口),25.079666,121.57583999999999
32,279,32,452521.0,南港車站(興華路),25.053432,121.60633100000001
33,88,33,461937.0,捷運象山站,25.032922,121.57087
34,37,34,470981.0,捷運東門站(4號出口),25.0337,121.52898799999998
35,306,35,479929.0,捷運古亭站(6號出口),25.027781,121.52198
36,2,36,491030.0,捷運國父紀念館站(2號出口),25.041254000000002,121.55742
37,173,37,501755.0,捷運松江南京站(7號出口),25.052181,121.53321100000001
38,146,38,514124.0,捷運士林站(2號出口),25.092546,121.526556
39,24,39,524652.0,信義建國路口,25.03293,121.53747
40,87,40,535123.0,捷運大安站,25.033078,121.543057
41,70,41,546528.0,捷運台北101/世貿站,25.032752,121.561645
42,83,42,559386.0,捷運大安森林公園站,25.033344,121.534236
43,30,43,574597.0,基隆長興路口,25.017054,121.544352
44,89,44,585675.0,和平重慶路口,25.027323000000003,121.51638500000001
45,285,45,596485.0,螢橋國小,25.025966,121.51377
46,110,46,608425.0,文湖國小,25.086376,121.56088799999999
47,249,47,616976.0,中華桂林路口,25.037706,121.506624
48,223,48,625203.0,清江國小,25.1274,121.507267
49,22,49,633899.0,松山車站,25.048824,121.57845
50,133,49,633899.0,蘭興公園,25.111839,121.525888
51,112,50,644573.0,捷運新北投站,25.137456,121.503124
52,35,51,653018.0,捷運行天宮站(3號出口),25.059978,121.533302
53,66,51,653018.0,師範大學公館校區,25.007528,121.53718799999999
54,13,52,662163.0,福德公園,25.03809,121.58367
55,241,52,662163.0,林口公園,25.038943,121.579146
56,308,53,673037.5,西松高中,25.055672,121.567127
57,10,54,681558.5,台北市災害應變中心,25.02866111,121.56611670000001
58,301,55,689562.0,林森長春路口,25.055062,121.525383
59,399,55,689562.0,和平龍泉街口,25.026404,121.52946000000001
60,71,56,698984.5,捷運信義安和站(4號出口),25.032985,121.554204
61,108,57,707644.0,臺北孔廟,25.073306,121.51584299999999
62,270,57,707644.0,雨農國小,25.105429,121.52921699999999
63,25,58,716176.0,永吉松信路口,25.04543,121.57205
64,387,58,716176.0,吳興街260巷,25.0261,121.56316000000001
65,62,59,724619.0,南昌公園,25.026826999999997,121.52025800000001
66,138,60,733512.0,捷運永春站(2號出口),25.040557999999997,121.575372
67,54,61,741699.0,臺北市立圖書館(總館),25.028798000000002,121.538073
68,81,62,750898.0,捷運台電大樓站(2號出口),25.020547,121.528552
69,332,63,759421.0,捷運中山站(2號出口),25.05225,121.52193
70,14,64,770007.0,榮星花園,25.064239999999998,121.54037
71,11,65,778494.0,三張犁,25.034937,121.55762
72,181,66,788052.0,建國和平路口,25.02585,121.537383
73,26,67,798266.0,捷運昆陽站(1號出口),25.050142,121.592375
74,275,68,807272.0,西本願寺廣場,25.040988,121.50768799999999
75,20,69,816441.0,捷運科技大樓站,25.025896,121.54329299999999
76,314,70,825584.0,敦化長春路口,25.053614000000003,121.54871999999999
77,65,71,835071.0,青年公園3號出口,25.022725,121.50270800000001
78,84,72,844175.0,復華花園新城,25.029705,121.502899
79,16,73,853319.0,松山家商,25.036084,121.57913500000001
80,162,74,865535.0,捷運中山國小站(4號出口),25.062924,121.52772
81,500119050,75,874772.0,臺大小福樓東側,25.01846,121.5376
82,140,76,882781.0,捷運大橋頭站(2號出口),25.063404000000002,121.51290900000001
83,32,77,892234.5,捷運六張犁站,25.023884,121.55316100000002
84,57,77,892234.5,新生和平路口,25.026217000000003,121.53518999999999
85,307,78,900281.0,仁愛安和路口,25.037570000000002,121.552076
86,63,79,908951.0,仁愛醫院,25.037569,121.54563200000001
87,42,80,916956.5,捷運後山埤站(1號出口),25.04431,121.58174
88,304,80,916956.5,金華公園,25.029902,121.53123500000001
89,31,81,925789.0,辛亥新生路口,25.022413,121.53456000000001
90,114,82,934123.0,蘭雅公園,25.109907999999997,121.53038600000001
91,182,82,934123.0,捷運古亭站(2號出口),25.0253,121.523537
92,280,83,943155.5,士林新天地,25.089033999999998,121.51732
93,401,83,943155.5,南京新生路口,25.051944,121.52766100000001
94,56,84,951314.5,仁愛林森路口,25.038954,121.52233400000001
95,244,84,951314.5,復興市民路口,25.045907999999997,121.54373600000001
96,187,84,951314.5,仁愛延吉街口,25.037465,121.555769
97,259,84,951314.5,南京遼寧街口,25.051761,121.54216799999999
98,395,84,951314.5,安強公園,25.036844,121.57541299999998
99,85,84,951314.5,信義敦化路口,25.033362,121.54911000000001
100,311,84,951314.5,捷運忠孝新生站(2號出口),25.042392,121.532229
101,172,84,951314.5,捷運南京三民站(1號出口),25.051562,121.562891
102,500101001,84,951314.5,捷運科技大樓站,25.02605,121.5436
103,183,84,951314.5,圓環站,25.05379,121.514179
104,60,85,959442.7,中山行政中心,25.064317000000003,121.53348700000001
105,218,85,959442.7,松山高中,25.043298999999998,121.564108
106,29,86,967813.2,金山愛國路口,25.03164,121.52655
107,294,86,967813.2,朱崙商場,25.047617000000002,121.54043100000001
108,52,86,967813.2,建國長春路口,25.054761,121.536925
109,231,86,967813.2,內政部營建署,25.047805,121.545022
110,79,87,976860.95,捷運民權西路站(3號出口),25.061285,121.520205
111,104,87,976860.95,台北花木批發市場,25.004023,121.54073999999999
112,118,88,985680.45,大業大同街口,25.136929000000002,121.499152
113,169,88,985680.45,植物園,25.030015,121.509813
114,403,88,985680.45,捷運內湖站(1號出口),25.083868,121.593929
115,404,88,985680.45,民族延平路口,25.068653,121.51056899999999
116,303,89,995629.45,安泰街83巷,25.076691,121.617085
117,76,90,1004762.95,新生長春路口,25.056387,121.52752199999999
118,103,90,1004762.95,萬華車站,25.033639,121.503028
119,500119048,90,1004762.95,臺大大一女舍北側,25.01547,121.53436
120,176,90,1004762.95,興安華城,25.055997,121.542318
121,40,91,1013241.6166666666,玉成公園,25.04287,121.5864
122,357,91,1013241.6166666666,松友公園,25.034229999999997,121.57636000000001
123,75,91,1013241.6166666666,基隆光復路口,25.0300508,121.557635
124,251,91,1013241.6166666666,華齡公園,25.083023,121.520692
125,312,91,1013241.6166666666,捷運信義安和站(1號出口),25.033323,121.55278700000001
126,92,91,1013241.6166666666,開封西寧路口,25.046618,121.50716899999999
127,287,91,1013241.6166666666,第二果菜批發市場,25.066423999999998,121.53735400000001
128,135,91,1013241.6166666666,捷運石牌站(2號出口),25.114513,121.515677
129,388,91,1013241.6166666666,景華街128巷口,24.995563,121.54709199999999
130,149,92,1021364.95,北投運動中心,25.116665,121.509621
131,389,92,1021364.95,福德國小,25.038324,121.58624499999999
132,68,93,1029534.45,國興青年路口,25.025865,121.50653600000001
133,147,93,1029534.45,士林運動中心,25.089175,121.52181399999999
134,225,93,1029534.45,臥龍樂業街口,25.0186,121.55483899999999
135,257,93,1029534.45,錦德公園,25.023316,121.49263700000002
136,261,93,1029534.45,健康新城,25.054095,121.560928
137,344,93,1029534.45,捷運忠孝復興站(5號出口),25.04264,121.54401000000001
138,86,94,1038236.6722222222,民權復興路口,25.062344,121.545138
139,309,94,1038236.6722222222,三軍總醫院(松山分院),25.054470000000002,121.55609799999999
140,500101027,94,1038236.6722222222,臺灣科技大學後門,25.01182,121.54165
141,144,95,1046762.3388888887,國立政治大學,24.988363,121.576536
142,4,96,1054923.1806610408,市民廣場,25.03603611,121.562325
143,253,96,1054923.1806610408,芝山抽水站,25.101423,121.52798999999999
144,113,96,1054923.1806610408,仁愛逸仙路口,25.037724,121.561178
145,372,96,1054923.1806610408,重慶民族路口,25.06825,121.51359
146,222,96,1054923.1806610408,撫順公園,25.064107999999997,121.522065
147,340,96,1054923.1806610408,南京光復路口,25.05143,121.55716000000001
148,300,96,1054923.1806610408,信義基隆路口,25.033209,121.55873100000001
149,258,96,1054923.1806610408,聯合醫院中興院區,25.052096,121.507979
150,248,96,1054923.1806610408,喬治工商,25.027123,121.55556599999998
151,351,96,1054923.1806610408,中山青島路口,25.04469,121.51953999999999
152,129,96,1054923.1806610408,捷運文德站(2號出口),25.078424,121.58456000000001
153,194,96,1054923.1806610408,市民林森路口,25.047957999999998,121.52438799999999
154,363,96,1054923.1806610408,復興南路一段340巷口,25.036170000000002,121.5435
155,8,96,1054923.1806610408,世貿三館,25.03521389,121.5636889
156,53,96,1054923.1806610408,八德市場,25.044781,121.53660900000001
157,106,96,1054923.1806610408,西園艋舺路口,25.032932000000002,121.497674
158,318,96,1054923.1806610408,成功金龍路口,25.084135,121.59483999999999
159,326,96,1054923.1806610408,基隆路一段101巷口,25.04525,121.56709
160,28,96,1054923.1806610408,五常公園,25.04814,121.57467
161,333,96,1054923.1806610408,復盛公園,25.047428,121.561182
162,90,96,1054923.1806610408,老松國小,25.037782999999997,121.50170800000001
163,397,96,1054923.1806610408,劍潭海外青年活動中心,25.079603,121.5237
164,290,96,1054923.1806610408,新生公園,25.068387,121.530188
165,41,96,1054923.1806610408,中研公園,25.047425,121.61370600000001
166,322,96,1054923.1806610408,永盛公園(民生東路一段23巷),25.058835000000002,121.52503999999999
167,316,96,1054923.1806610408,民有一號公園,25.060910999999997,121.54763
168,354,96,1054923.1806610408,建國濟南路口,25.040032999999998,121.53808400000001
169,51,96,1054923.1806610408,建國農安街口,25.065031,121.536775
170,391,96,1054923.1806610408,景仁公園,24.9966,121.540295
171,161,96,1054923.1806610408,大豐公園,25.131142999999998,121.503768
172,203,96,1054923.1806610408,古亭國中,25.024487,121.51057
173,166,96,1054923.1806610408,臺北市立景美女中,24.980601999999998,121.556177
174,324,96,1054923.1806610408,市立圖書館葫蘆堵分館,25.08221,121.5108
175,348,96,1054923.1806610408,民生立體停車場,25.058522,121.55941999999999
176,170,96,1054923.1806610408,新東公園,25.059245,121.56888300000001
177,188,96,1054923.1806610408,社子國小,25.090293,121.50188999999999
178,43,96,1054923.1806610408,凌雲市場,25.035639,121.614154
179,243,96,1054923.1806610408,社子公園,25.090201999999998,121.50621899999999
180,330,96,1054923.1806610408,迪化休閒運動公園,25.07491,121.5115
181,500101003,96,1054923.1806610408,國北教大實小東側門,25.02429,121.54123999999999
182,47,96,1054923.1806610408,捷運忠孝新生站(4號出口),25.042275,121.53393899999999
183,99,96,1054923.1806610408,捷運雙連站(2號出口),25.057866,121.520711
184,101,96,1054923.1806610408,華山文創園區,25.043668,121.52848700000001
185,185,96,1054923.1806610408,?公公園,25.042342,121.54605
186,240,96,1054923.1806610408,南京建國路口,25.052141,121.53680200000001
187,378,96,1054923.1806610408,陽光街321巷口,25.073193,121.57869099999999
188,500101002,96,1054923.1806610408,復興南路二段273號前,25.02565,121.54356999999999
189,500101017,96,1054923.1806610408,羅斯福路三段269巷5號前,25.01913,121.53079
190,500119062,96,1054923.1806610408,臺大公館停車場西北側,25.01345,121.53798
191,500101020,96,1054923.1806610408,溫州停車場,25.02093,121.5331
192,500119080,96,1054923.1806610408,臺大小小福西南側,25.01539,121.53686
193,1289,96,1054923.1806610408,忠山市民活動中心,25.078201999999997,121.62449299999999
194,269,96,1054923.1806610408,三軍總醫院,25.070723,121.590304
195,500101018,96,1054923.1806610408,溫州公園,25.01895,121.53156000000001
196,500101093,96,1054923.1806610408,大安區健康服務中心,25.021469,121.544069
197,500101008,96,1054923.1806610408,新生南路三段52號前,25.02112,121.53407
198,500101092,96,1054923.1806610408,和平實小東北側,25.021641,121.54704
199,500119063,96,1054923.1806610408,臺大第二行政大樓南側,25.016029999999997,121.53635
200,500119065,96,1054923.1806610408,臺大二號館,25.01699,121.53573999999999
201,265,96,1054923.1806610408,中央北路四段30巷口,25.135394,121.478
202,283,96,1054923.1806610408,中央北路四段540巷口,25.127959,121.4677
203,500106002,96,1054923.1806610408,汀州思源街口東南側,25.014697,121.531908
204,500101004,96,1054923.1806610408,和平公園東側,25.02351,121.54281999999999
205,500119056,96,1054923.1806610408,臺大農化新館西側,25.016270000000002,121.53535
206,500101006,96,1054923.1806610408,復興南路二段280號前,25.02429,121.54328000000001
207,500101007,96,1054923.1806610408,復興南路二段340巷口,25.02253,121.54326
208,500101015,96,1054923.1806610408,大安運動中心停車場,25.020348000000002,121.546446
209,500101019,96,1054923.1806610408,和平臥龍街口,25.024461,121.546705
210,500119057,96,1054923.1806610408,臺大五號館西側,25.01666,121.53718
211,500119082,96,1054923.1806610408,臺大四號館東北側,25.01703,121.53781000000001
212,500119073,96,1054923.1806610408,臺大校史館南側,25.01751,121.53568999999999
213,196,96,1054923.1806610408,新湖國小,25.068744,121.58923300000001
214,246,96,1054923.1806610408,國立故宮博物院,25.098743,121.54808600000001
215,500101035,96,1054923.1806610408,臺大土木研究大樓前,25.017870000000002,121.5476
216,500119059,96,1054923.1806610408,臺大共同教室北側,25.01595,121.53791000000001
217,500119081,96,1054923.1806610408,臺大教研館北側,25.013370000000002,121.53908999999999
218,500119064,96,1054923.1806610408,臺大明達館機車停車場,25.01754,121.54398
219,500119074,96,1054923.1806610408,臺大生命科學館西北側,25.01548,121.53825
220,500119089,96,1054923.1806610408,臺大獸醫館南側,25.01791,121.54241999999999
221,500119008,96,1054923.1806610408,臺大檔案展示館,25.01391,121.52895
222,500119072,96,1054923.1806610408,臺大原分所北側,25.018810000000002,121.53868
223,500119069,96,1054923.1806610408,臺大思亮館東南側,25.02074,121.53906
224,500119084,96,1054923.1806610408,臺大鄭江樓北側,25.019000000000002,121.54305
225,500101037,96,1054923.1806610408,臺大國青大樓宿舍前,25.02076,121.54432
226,500119007,96,1054923.1806610408,臺大水源修齊會館,25.014110000000002,121.52996999999999
227,374,96,1054923.1806610408,麗湖國小,25.073322,121.602225
228,402,96,1054923.1806610408,下灣公園,25.065159,121.595611
229,211,96,1054923.1806610408,星雲金湖街口,25.080915,121.59733899999999
230,356,96,1054923.1806610408,臺北市網球中心,25.0674,121.59749
231,500101040,96,1054923.1806610408,臺大綜合體育館停車場前,25.0222,121.53626000000001
232,260,96,1054923.1806610408,民權瑞光路口,25.068616,121.583991
233,335,96,1054923.1806610408,景文中學,24.986301,121.56785500000001
234,500101030,96,1054923.1806610408,臺大永齡生醫工程館,25.0136,121.54656000000001
235,180,96,1054923.1806610408,福華商場,25.06877,121.59265400000001
236,239,96,1054923.1806610408,新明路262巷口,25.056641,121.583403
237,500101021,96,1054923.1806610408,銘傳國小側門,25.01385,121.53549
238,500101011,96,1054923.1806610408,羅斯福路三段333巷9號旁,25.017570000000003,121.53271000000001
239,500106003,96,1054923.1806610408,捷運公館站(1號出口),25.014529,121.534374
240,500101012,96,1054923.1806610408,辛亥路一段30號前,25.01986,121.52982
241,500101016,96,1054923.1806610408,羅斯福路三段245號前,25.019270000000002,121.52989
242,207,96,1054923.1806610408,福安國中,25.103242,121.487477
243,102,96,1054923.1806610408,臺北市客家文化主題公園,25.020429999999998,121.525322
244,141,96,1054923.1806610408,文山行政中心,24.989902,121.569984
245,500101013,96,1054923.1806610408,和平復興路口西北側,25.02543,121.54332
246,247,96,1054923.1806610408,木柵公園,24.987144,121.560627
247,500101091,96,1054923.1806610408,國北教大側門南側,25.022864000000002,121.546622
248,325,96,1054923.1806610408,南京東路六段368巷,25.05827,121.58707
249,500119006,96,1054923.1806610408,臺大卓越研究大樓,25.01466,121.52917
250,366,96,1054923.1806610408,碧湖公園,25.07988,121.58287
251,233,96,1054923.1806610408,捷運忠義站,25.131411,121.47415500000001
252,264,96,1054923.1806610408,秀山區民活動中心,25.145936,121.49300900000001
253,381,96,1054923.1806610408,民權東路六段15巷,25.06853,121.578125
254,500101036,96,1054923.1806610408,臺大萬才館前,25.02032,121.54496999999999
255,500119086,96,1054923.1806610408,臺大圖資系館北側,25.01804,121.53928
256,500119054,96,1054923.1806610408,臺大心理系館南側,25.01941,121.5404
257,500119068,96,1054923.1806610408,臺大社會系館南側,25.01987,121.54175
258,500119044,96,1054923.1806610408,臺大仰萃樓東南側,25.01408,121.53759
259,500119055,96,1054923.1806610408,臺大樂學館東側,25.01793,121.53585
260,500119046,96,1054923.1806610408,臺大管理學院二館北側,25.01355,121.53673
261,500119060,96,1054923.1806610408,臺大共同教室東南側,25.01566,121.53786000000001
262,500101034,96,1054923.1806610408,臺大動物醫院前,25.01576,121.54291
263,500119047,96,1054923.1806610408,臺大土木系館,25.01761,121.53844
264,500119078,96,1054923.1806610408,臺大森林館北側,25.017039999999998,121.53888
265,500119076,96,1054923.1806610408,臺大博理館西側,25.01922,121.54195
266,500101014,96,1054923.1806610408,羅斯福路三段311號前,25.01717,121.53201999999999
267,500106004,96,1054923.1806610408,捷運公館站(4號出口),25.015069,121.533828
268,500101038,96,1054923.1806610408,臺大社科院圖書館前,25.02101,121.54283999999998
269,500101039,96,1054923.1806610408,臺大法人語言訓練中心前,25.02104,121.54081000000001
270,500101005,96,1054923.1806610408,辛亥復興路口西北側,25.02153,121.54298999999999
271,500119070,96,1054923.1806610408,臺大椰林小舖,25.015610000000002,121.53583
272,500101029,96,1054923.1806610408,臺大環研大樓,25.01234,121.54503000000001
273,228,96,1054923.1806610408,捷運萬芳社區站,24.998811,121.56788999999999
274,393,96,1054923.1806610408,內溝溪生態展示館,25.087217000000003,121.623062
275,184,96,1054923.1806610408,劍潭社區,25.084759,121.537892
276,390,96,1054923.1806610408,稻香重三路口,25.139937,121.489594
277,500101041,96,1054923.1806610408,辛亥新生路口東南側,25.02218,121.53473999999999
278,500119045,96,1054923.1806610408,臺大農業陳列館北側,25.01839,121.53403999999999
279,358,96,1054923.1806610408,新明成功路口,25.060579999999998,121.5911
280,256,96,1054923.1806610408,中山中正路口,25.096507,121.527526
281,342,96,1054923.1806610408,文林建民路口,25.107789999999998,121.51468
282,500101025,96,1054923.1806610408,臺灣科技大學側門,25.01295,121.53973
283,500101042,96,1054923.1806610408,基隆長興路口東側,25.01727,121.54471000000001
284,355,96,1054923.1806610408,福山公園,25.04478,121.61758999999999
285,500101094,96,1054923.1806610408,辛亥泰順街口,25.021929999999998,121.53165
286,383,96,1054923.1806610408,一壽橋,24.978479999999998,121.55545
287,384,96,1054923.1806610408,松基公園,25.05491,121.5448
288,500101024,96,1054923.1806610408,臺灣科技大學正門,25.01451,121.54142
289,136,96,1054923.1806610408,國立臺北護理健康大學,25.117457,121.51668000000001
290,500101031,96,1054923.1806610408,臺大男七舍前,25.01537,121.54698
291,500119058,96,1054923.1806610408,臺大舊體育館西側,25.0198,121.53583
292,500119051,96,1054923.1806610408,臺大立體機車停車場,25.01616,121.54251000000001
293,209,96,1054923.1806610408,捷運復興崗站,25.137837,121.486071
294,323,96,1054923.1806610408,新興公園,25.061567999999998,121.52439199999999
295,365,96,1054923.1806610408,陽明大學,25.119120000000002,121.51223
296,500101009,96,1054923.1806610408,新生南路三段66號前,25.01976,121.53383999999998
297,500101023,96,1054923.1806610408,第二學生活動中心,25.012439999999998,121.53661000000001
298,380,96,1054923.1806610408,塔悠疏散門,25.064713,121.567899
299,500106001,96,1054923.1806610408,臺北自來水事業處,25.013741,121.53068
300,337,96,1054923.1806610408,彩虹橋,25.05301,121.57592
301,234,96,1054923.1806610408,永欣綠地,25.124162,121.526071
302,278,96,1054923.1806610408,明美公園,25.062557,121.58606499999999
303,157,96,1054923.1806610408,麗山國小,25.082703,121.571467
304,212,96,1054923.1806610408,北安大直街口,25.084223,121.549452
305,500101010,96,1054923.1806610408,新生南路三段82號前,25.01894,121.53361000000001
306,500119079,96,1054923.1806610408,臺大一號館,25.01698,121.53455
307,50,96,1054923.1806610408,民權運動公園,25.062002,121.56018600000002
308,500119009,96,1054923.1806610408,臺大水源舍區B棟,25.01525,121.53008999999999
309,500119005,96,1054923.1806610408,臺大水源舍區A棟,25.01493,121.53043999999998
310,151,96,1054923.1806610408,考試院,24.987507,121.54982700000001
311,284,96,1054923.1806610408,華聲公園,25.096166,121.52209599999999
312,96,96,1054923.1806610408,三民公園,25.061567,121.566558
313,267,96,1054923.1806610408,八德中坡路口,25.050620000000002,121.58019399999999
314,319,96,1054923.1806610408,民族林森路口,25.068507,121.525322
315,262,96,1054923.1806610408,永安藝文館-表演36房,24.984144,121.56906399999998
316,377,96,1054923.1806610408,南港路二段178巷口,25.053675,121.59969299999999
317,124,96,1054923.1806610408,振華公園,25.115863,121.51816299999999
318,216,96,1054923.1806610408,培英公園,25.082553,121.544601
319,274,96,1054923.1806610408,扶輪親恩公園,25.066997,121.57983300000001
320,368,96,1054923.1806610408,臺灣戲曲中心,25.102079999999997,121.51978999999999
321,500119077,96,1054923.1806610408,臺大博雅館西側,25.0189,121.536
322,44,96,1054923.1806610408,捷運南港軟體園區站(2號出口),25.05973,121.61618700000001
323,201,96,1054923.1806610408,東陽公園,25.057164,121.597924
324,336,96,1054923.1806610408,承德路三段8巷口,25.06382,121.51815
325,171,96,1054923.1806610408,文山運動中心,24.996842,121.559651
326,214,96,1054923.1806610408,基河一期國宅,25.055935,121.578645
327,192,96,1054923.1806610408,捷運葫洲站(1號出口),25.072485,121.607955
328,398,96,1054923.1806610408,聯合醫院陽明院區,25.104546,121.531949
329,142,96,1054923.1806610408,捷運木柵站,24.997996,121.57444
330,268,96,1054923.1806610408,南港高工,25.056655,121.607055
331,143,96,1054923.1806610408,捷運動物園站(2號出口),24.997659,121.57875200000001
332,206,96,1054923.1806610408,捷運辛亥站,25.005385999999998,121.55716000000001
333,73,96,1054923.1806610408,酒泉延平路口,25.072228,121.510195
334,500119066,96,1054923.1806610408,臺大凝態館南側,25.02157,121.53633
335,227,96,1054923.1806610408,麗山高中,25.084244,121.57668000000001
336,500119087,96,1054923.1806610408,臺大總圖書館西南側,25.0169,121.54031
337,500101033,96,1054923.1806610408,臺大男六舍前,25.01664,121.5452
338,191,96,1054923.1806610408,捷運大湖公園站(2號出口),25.083873,121.60206000000001
339,116,96,1054923.1806610408,福林公園,25.096122,121.53021499999998
340,329,96,1054923.1806610408,樂群二明水路口,25.079829999999998,121.55236000000001
341,165,96,1054923.1806610408,捷運唭哩岸站(2號出口),25.120788,121.505693
342,299,96,1054923.1806610408,萬華國中,25.029264,121.499358
343,281,96,1054923.1806610408,松江公園,25.050245,121.532725
344,382,96,1054923.1806610408,聯合醫院和平院區,25.03516,121.50639
345,328,96,1054923.1806610408,一江公園,25.053160000000002,121.53146000000001
346,271,96,1054923.1806610408,伊通長安路口,25.048334,121.53469299999999
347,347,96,1054923.1806610408,博愛寶慶路口,25.041339999999998,121.51135
348,254,96,1054923.1806610408,立功立德路口,25.125377,121.47148200000001
349,375,96,1054923.1806610408,銘傳大學,25.087714000000002,121.526766
350,302,96,1054923.1806610408,敦北公園,25.060745999999998,121.550711
351,500119085,96,1054923.1806610408,臺大電機二館東南側,25.01857,121.54247
352,500119090,96,1054923.1806610408,臺大新體育館東南側,25.02112,121.53591000000002
353,500119061,96,1054923.1806610408,臺大鹿鳴堂東側,25.01511,121.53786000000001
354,500119088,96,1054923.1806610408,臺大黑森林西側,25.01995,121.54347
355,178,96,1054923.1806610408,延平國宅,25.078908,121.510306
356,193,96,1054923.1806610408,舊莊區民活動中心,25.041276999999997,121.61935
357,317,96,1054923.1806610408,雙園國中,25.026823,121.491675
358,69,96,1054923.1806610408,興豐公園,24.999837,121.54777800000001
359,109,96,1054923.1806610408,林安泰古厝,25.071606,121.530805
360,77,96,1054923.1806610408,民生活動中心,25.059147,121.56296999999999
361,385,96,1054923.1806610408,和興路26巷口,24.9856,121.54531000000001
362,208,96,1054923.1806610408,龍山國小,25.035555,121.495342
363,224,96,1054923.1806610408,社正公園,25.088243,121.510535
364,125,96,1054923.1806610408,華西公園,25.038609,121.49849499999999
365,237,96,1054923.1806610408,文山第二行政中心,25.001148999999998,121.551418
366,98,96,1054923.1806610408,羅斯福景隆街口,24.999378,121.54019699999999
367,205,96,1054923.1806610408,木柵光輝路口,24.988241,121.55561000000002
368,168,96,1054923.1806610408,河堤國小,25.022879999999997,121.522855
369,272,96,1054923.1806610408,忠順區民活動中心,24.984707,121.563125
370,296,96,1054923.1806610408,萬和二號公園,25.001545,121.536446
371,370,96,1054923.1806610408,新和國小,25.02656,121.50242
372,500101026,96,1054923.1806610408,公館公園,25.01137,121.54061999999999
373,500119043,96,1054923.1806610408,臺大男八舍東側,25.01729,121.54531000000001
374,58,96,1054923.1806610408,捷運善導寺站(1號出口),25.045267000000003,121.5222
375,341,96,1054923.1806610408,捷運芝山站(1號出口),25.100939999999998,121.52243
376,177,96,1054923.1806610408,葫蘆國小,25.082538,121.50749499999999
377,18,96,1054923.1806610408,臺北市藝文推廣處,25.049408,121.55261000000002
378,360,96,1054923.1806610408,民權建國路口,25.062520000000003,121.53753999999999
379,292,96,1054923.1806610408,合心廣場,25.046360999999997,121.582848
380,352,96,1054923.1806610408,民權迪化街口,25.06318,121.50943999999998
381,159,96,1054923.1806610408,捷運西湖站(1號出口),25.082866,121.566695
382,321,96,1054923.1806610408,莒光大埔街口,25.031334,121.50508500000001
383,379,96,1054923.1806610408,春光公園,25.042619000000002,121.58076200000001
384,298,96,1054923.1806610408,太原五原路口,25.056458,121.516976
385,373,96,1054923.1806610408,中崙福成宮,25.04525,121.54663500000001
386,19,96,1054923.1806610408,象山公園,25.02863,121.56981
387,130,96,1054923.1806610408,羅斯福寧波東街口,25.031445,121.519411
388,153,96,1054923.1806610408,蔣渭水紀念公園,25.059885,121.516299
389,400,96,1054923.1806610408,和平敦化路口,25.02444,121.549076
390,33,96,1054923.1806610408,中崙高中,25.048779999999997,121.56087
391,95,96,1054923.1806610408,東園國小,25.023393,121.497679
392,148,96,1054923.1806610408,捷運明德站,25.110331,121.518316
393,255,96,1054923.1806610408,光復南路22巷口,25.046914,121.557674
394,315,96,1054923.1806610408,捷運萬隆站(1號出口),25.001447,121.53903700000001
395,250,96,1054923.1806610408,忠孝東路三段217巷口,25.04184,121.539873
396,396,96,1054923.1806610408,新東街51巷口,25.061501,121.563318
397,213,96,1054923.1806610408,蘭雅國小,25.107782,121.52310700000001
398,331,96,1054923.1806610408,民族玉門街口,25.06859,121.51973999999998
399,338,96,1054923.1806610408,成德國中,25.04573,121.58793999999999
400,362,96,1054923.1806610408,和平金山路口,25.02672,121.52533000000001
401,286,96,1054923.1806610408,德明財經科技大學,25.086372,121.56571299999999
402,232,96,1054923.1806610408,中山天母路口,25.118843,121.529738
403,310,96,1054923.1806610408,國立臺北大學(臺北校區),25.057923000000002,121.542732
404,500119053,96,1054923.1806610408,臺大天文數學館南側,25.021079999999998,121.53783
405,500119083,96,1054923.1806610408,臺大新生教室南側,25.0196,121.53846000000001
406,9,96,1054923.1806610408,松德站,25.031785,121.57448000000001
407,230,96,1054923.1806610408,湖光國宅,25.075366,121.58081100000001
408,297,96,1054923.1806610408,長沙公園,25.041701999999997,121.499922
409,500101032,96,1054923.1806610408,臺大男一舍前,25.016370000000002,121.54535
410,500119052,96,1054923.1806610408,臺大工綜館南側,25.01857,121.54059
411,121,96,1054923.1806610408,龍江南京路口,25.052979999999998,121.540568
412,156,96,1054923.1806610408,東湖國小,25.06853,121.61538
413,386,96,1054923.1806610408,錦州吉林路口,25.06029,121.52981000000001
414,236,96,1054923.1806610408,關渡自然公園,25.119292,121.46913799999999
415,500101028,96,1054923.1806610408,臺大醫學院附設癌醫中心,25.01426,121.54382
416,189,96,1054923.1806610408,金瑞公園(金龍路),25.087987,121.58781
417,23,96,1054923.1806610408,東新國小,25.055073999999998,121.60279799999999
418,204,96,1054923.1806610408,臺北市立大學(天母校區),25.113625,121.53742
419,345,96,1054923.1806610408,中正運動中心,25.03806,121.51943
420,107,96,1054923.1806610408,捷運小南門站(1號出口),25.036402,121.509422
421,34,96,1054923.1806610408,捷運行天宮站(1號出口),25.058369,121.53293400000001
422,59,96,1054923.1806610408,林森公園,25.052227,121.525805
423,252,96,1054923.1806610408,大安運動中心,25.020544,121.545608
424,105,96,1054923.1806610408,峨嵋停車場,25.044412,121.50540900000001
425,273,96,1054923.1806610408,芝山國小,25.110437,121.535954
426,359,96,1054923.1806610408,健安新城,25.05601,121.56358
427,74,96,1054923.1806610408,信義連雲街口,25.033817000000003,121.530547
428,320,96,1054923.1806610408,捷運南京三民站(3號出口),25.051287,121.56426200000001
429,295,96,1054923.1806610408,敦親公園,25.023473000000003,121.541083
430,350,96,1054923.1806610408,復興南路二段128巷口,25.02904,121.54336
431,349,96,1054923.1806610408,重慶酒泉街口,25.07183,121.51364
432,392,96,1054923.1806610408,南京東興路口,25.051489,121.565347
433,80,96,1054923.1806610408,華江高中,25.02751,121.495869
434,282,96,1054923.1806610408,富台公園,25.041935000000002,121.571999
435,123,96,1054923.1806610408,天母運動公園,25.116325,121.534136
436,327,96,1054923.1806610408,重慶南海路口,25.031579999999998,121.51463999999999
437,145,96,1054923.1806610408,樹德公園,25.066688,121.516149
438,158,96,1054923.1806610408,捷運東湖站,25.067026000000002,121.61355
439,190,96,1054923.1806610408,捷運大直站(3號出口),25.079278,121.546683
440,394,96,1054923.1806610408,松德虎林街口,25.038352,121.57624799999999
441,48,96,1054923.1806610408,南港車站(忠孝東路),25.05247,121.608202
442,128,96,1054923.1806610408,成功國宅,25.026808,121.546726
443,197,96,1054923.1806610408,饒河夜市(八德路側),25.049845,121.57188500000001
444,276,96,1054923.1806610408,三興公園,25.028679,121.55932
445,277,96,1054923.1806610408,中山堂,25.044091,121.51025
446,154,96,1054923.1806610408,中正基河路口,25.093396,121.51986699999999
447,343,96,1054923.1806610408,忠孝東路六段185巷口,25.049039999999998,121.58755
448,137,96,1054923.1806610408,國防大學,25.137976000000002,121.49306599999998
449,155,96,1054923.1806610408,瑞光港墘路口,25.076193,121.57505
450,500119071,96,1054923.1806610408,臺大計資中心南側,25.02036,121.53992
451,500119067,96,1054923.1806610408,臺大社科院西側,25.020529999999997,121.54145
452,72,96,1054923.1806610408,新生長安路口,25.048610999999998,121.52934599999999
453,367,96,1054923.1806610408,豐年公園,25.13597,121.497019
454,127,96,1054923.1806610408,東湖國中,25.073276999999997,121.61952099999999
455,226,96,1054923.1806610408,向陽南港路口,25.054365,121.594228
456,361,96,1054923.1806610408,振興醫院,25.1177,121.5222
457,500119049,96,1054923.1806610408,臺大女九舍西南側,25.019370000000002,121.53902
458,263,97,1062952.6806610408,至善臨溪路口,25.097103,121.542153
459,167,98,1071636.3473277076,臺北市立天文館,25.095714,121.518046
460,353,98,1071636.3473277076,紀州庵,25.02088,121.52049
461,376,98,1071636.3473277076,民生建國路口,25.057778,121.536915
462,179,99,1080507.0139943743,南港公園,25.041355,121.59073000000001
463,305,99,1080507.0139943743,碧山公園,25.087413,121.592253
464,163,100,1089624.0139943743,捷運麟光站,25.018097,121.559279
465,369,100,1089624.0139943743,世新大學,24.98862,121.54361000000002
466,39,101,1099001.0139943743,南港世貿公園,25.058000000000003,121.61421999999999
467,346,101,1099001.0139943743,陽明高中,25.09157,121.51669
468,217,102,1107344.5139943743,臺北花市,25.062645,121.57426699999999
469,91,103,1116906.7639943743,市立美術館,25.070629,121.52326799999999
470,100,103,1116906.7639943743,金山市民路口,25.045753,121.530697
471,242,103,1116906.7639943743,關渡宮,25.117472,121.46316100000001
472,220,103,1116906.7639943743,大稻埕公園,25.059162,121.510512
473,229,104,1126068.5139943743,市民太原路口,25.049394,121.51461100000002
474,500119075,105,1135365.5139943743,臺大第一活動中心西南側,25.01761,121.53995
475,288,106,1143510.5139943743,濟南紹興路口,25.041928,121.52459099999999
476,371,107,1152526.5139943743,南門國中,25.035320000000002,121.50833999999999
477,339,108,1164856.5139943743,重慶國中,25.07581,121.51816000000001
478,219,109,1174355.5139943743,大理高中,25.031147,121.49073999999999
479,186,110,1186669.5139943743,臺北市立大學,25.035414000000003,121.514218
480,195,111,1195907.5139943743,信義杭州路口(中華電信總公司),25.035851,121.523987
481,131,112,1207731.5139943743,洲子二號公園,25.079322,121.568688
482,266,112,1207731.5139943743,洲子一號公園,25.080257999999997,121.564806
483,126,113,1216796.0139943743,敦化基隆路口,25.022073000000002,121.548336
484,235,113,1216796.0139943743,市民東興路口,25.048460000000002,121.565928
485,17,114,1224885.0139943743,民生光復路口,25.05862,121.55514
486,64,115,1233995.0139943743,國家圖書館,25.037773,121.51702900000001
487,150,116,1242380.0139943743,松德公園,25.036568,121.57343
488,334,117,1250501.0139943743,敦化南路二段103巷口,25.028973,121.549024
489,238,118,1258706.0139943743,瑞湖陽光街口,25.073119000000002,121.575965
490,38,119,1268524.0139943743,臺灣師範大學(圖書館),25.026603,121.52944
491,245,120,1278403.0139943743,捷運中山國中站,25.060632000000002,121.544028
492,7,121,1287888.0139943743,信義廣場(台北101),25.03303889,121.56561940000002
493,21,122,1298428.0139943743,民生敦化路口,25.057985000000002,121.54898200000001
494,3,123,1308126.0139943743,台北市政府,25.03779722,121.56516940000002
495,111,124,1319037.0139943743,捷運忠孝復興站(2號出口),25.040184,121.543497
496,174,125,1328171.0139943743,捷運小巨蛋站(5號出口),25.051702,121.55305700000001
497,82,126,1337388.0139943743,捷運西門站(3號出口),25.041778,121.508693
498,120,127,1348731.0139943743,捷運龍山寺站(1號出口),25.035479000000002,121.50026000000001
499,55,128,1358708.0139943743,臺北田徑場,25.049505,121.54940800000001
500,221,129,1370739.0139943743,泰和公園,25.019276,121.57106999999999
501,210,130,1386320.0139943743,樂群二敬業四路口,25.079766,121.55813500000001
502,46,131,1399647.0139943743,南港國小,25.056504,121.61138899999999
