index,station_no,class,Diff,name,lat,lng
0,1,0,0.0,捷運市政府站(3號出口),25.04085789,121.5679044
1,61,1,29268.0,台灣科技大學,25.0131,121.539723
2,36,2,50919.0,臺大資訊大樓,25.02101,121.54153000000001
3,500101022,3,74497.0,捷運公館站(2號出口),25.01491,121.53438
4,134,4,92522.0,捷運芝山站(2號出口),25.103360000000002,121.52262900000001
5,97,5,108865.0,捷運劍潭站(2號出口),25.082825,121.524721
6,132,6,125658.0,羅斯福新生南路口,25.01603085,121.5331757
7,6,7,145955.0,臺北南山廣場,25.034047,121.565973
8,5,8,161916.0,興雅國中,25.03656389,121.56866389999999
9,45,9,175803.0,捷運公館站(2號出口),25.01476,121.53453799999998
10,291,10,189531.0,捷運松山站(3號出口),25.049616,121.577459
11,78,11,202910.0,捷運圓山站(2號出口),25.071824,121.519287
12,94,12,215348.0,捷運景美站,24.993254,121.541059
13,202,13,226787.0,捷運關渡站,25.124646,121.46733600000002
14,49,14,243579.0,龍門廣場,25.040901,121.548252
15,175,15,254295.0,捷運南京復興站(5號出口),25.051617999999998,121.544847
16,12,16,266922.0,臺北醫學大學,25.026679,121.561747
17,117,17,281198.0,捷運北投站,25.132581,121.498618
18,93,18,293052.0,吳興公車總站,25.023877,121.56983600000001
19,152,19,305450.0,百齡國小,25.08521,121.519175
20,313,20,318855.0,光華商場,25.04515,121.532738
21,215,21,331321.0,捷運北門站(3號出口),25.04993,121.51036699999999
22,293,22,342152.0,自來水園區,25.013284,121.53003700000001
23,139,23,352805.0,永樂市場,25.054501000000002,121.510549
24,119,24,365519.0,捷運劍南路站(2號出口),25.08418,121.555116
25,27,25,376244.0,捷運南港展覽館站(5號出口),25.05469,121.61668999999999
26,289,26,385786.0,牯嶺公園,25.023377,121.51883500000001
27,364,27,396655.0,嘉興公園,25.02109,121.55219
28,67,28,408846.0,捷運臺大醫院(4號出口),25.042973,121.516428
29,115,29,419067.0,臺北轉運站,25.048222,121.520526
30,164,30,430486.0,捷運奇岩站,25.126286,121.500801
31,122,31,441596.0,捷運港墘站(2號出口),25.079666,121.57583999999999
32,279,32,452521.0,南港車站(興華路),25.053432,121.60633100000001
33,88,33,461937.0,捷運象山站,25.032922,121.57087
34,37,34,470981.0,捷運東門站(4號出口),25.0337,121.52898799999998
35,306,35,479929.0,捷運古亭站(6號出口),25.027781,121.52198
36,2,36,491030.0,捷運國父紀念館站(2號出口),25.041254000000002,121.55742
37,173,37,501755.0,捷運松江南京站(7號出口),25.052181,121.53321100000001
38,146,38,514124.0,捷運士林站(2號出口),25.092546,121.526556
39,24,39,524652.0,信義建國路口,25.03293,121.53747
40,87,40,535123.0,捷運大安站,25.033078,121.543057
41,70,41,546528.0,捷運台北101/世貿站,25.032752,121.561645
42,83,42,559386.0,捷運大安森林公園站,25.033344,121.534236
43,30,43,574597.0,基隆長興路口,25.017054,121.544352
44,89,44,585675.0,和平重慶路口,25.027323000000003,121.51638500000001
45,285,45,596485.0,螢橋國小,25.025966,121.51377
46,110,46,608425.0,文湖國小,25.086376,121.56088799999999
47,249,47,616976.0,中華桂林路口,25.037706,121.506624
48,223,48,625203.0,清江國小,25.1274,121.507267
49,22,49,633301.0,松山車站,25.048824,121.57845
50,133,50,641223.0,蘭興公園,25.111839,121.525888
51,112,51,651798.0,捷運新北投站,25.137456,121.503124
52,35,52,660090.0,捷運行天宮站(3號出口),25.059978,121.533302
53,66,53,667866.0,師範大學公館校區,25.007528,121.53718799999999
54,13,54,677284.5,福德公園,25.03809,121.58367
55,241,54,677284.5,林口公園,25.038943,121.579146
56,308,55,688159.0,西松高中,25.055672,121.567127
57,10,56,696680.0,台北市災害應變中心,25.02866111,121.56611670000001
58,301,57,704403.0,林森長春路口,25.055062,121.525383
59,399,58,712050.0,和平龍泉街口,25.026404,121.52946000000001
60,71,59,721700.0,捷運信義安和站(4號出口),25.032985,121.554204
61,108,60,730359.5,臺北孔廟,25.073306,121.51584299999999
62,270,60,730359.5,雨農國小,25.105429,121.52921699999999
63,25,61,738891.5,永吉松信路口,25.04543,121.57205
64,387,61,738891.5,吳興街260巷,25.0261,121.56316000000001
65,62,62,747334.5,南昌公園,25.026826999999997,121.52025800000001
66,138,63,756227.5,捷運永春站(2號出口),25.040557999999997,121.575372
67,54,64,764414.5,臺北市立圖書館(總館),25.028798000000002,121.538073
68,81,65,773613.5,捷運台電大樓站(2號出口),25.020547,121.528552
69,332,66,782136.5,捷運中山站(2號出口),25.05225,121.52193
70,14,67,792722.5,榮星花園,25.064239999999998,121.54037
71,11,68,801209.5,三張犁,25.034937,121.55762
72,181,69,810767.5,建國和平路口,25.02585,121.537383
73,26,70,820981.5,捷運昆陽站(1號出口),25.050142,121.592375
74,275,71,829987.5,西本願寺廣場,25.040988,121.50768799999999
75,20,72,839156.5,捷運科技大樓站,25.025896,121.54329299999999
76,314,73,848299.5,敦化長春路口,25.053614000000003,121.54871999999999
77,65,74,857786.5,青年公園3號出口,25.022725,121.50270800000001
78,84,75,866890.5,復華花園新城,25.029705,121.502899
79,16,76,876034.5,松山家商,25.036084,121.57913500000001
80,162,77,888250.5,捷運中山國小站(4號出口),25.062924,121.52772
81,500119050,78,897487.5,臺大小福樓東側,25.01846,121.5376
82,140,79,905496.5,捷運大橋頭站(2號出口),25.063404000000002,121.51290900000001
83,32,80,914950.0,捷運六張犁站,25.023884,121.55316100000002
84,57,80,914950.0,新生和平路口,25.026217000000003,121.53518999999999
85,307,81,922996.5,仁愛安和路口,25.037570000000002,121.552076
86,63,82,931666.5,仁愛醫院,25.037569,121.54563200000001
87,42,83,939672.0,捷運後山埤站(1號出口),25.04431,121.58174
88,304,83,939672.0,金華公園,25.029902,121.53123500000001
89,31,84,948504.5,辛亥新生路口,25.022413,121.53456000000001
90,114,85,956838.5,蘭雅公園,25.109907999999997,121.53038600000001
91,182,85,956838.5,捷運古亭站(2號出口),25.0253,121.523537
92,280,86,965871.0,士林新天地,25.089033999999998,121.51732
93,401,86,965871.0,南京新生路口,25.051944,121.52766100000001
94,56,87,973875.0,仁愛林森路口,25.038954,121.52233400000001
95,244,87,973875.0,復興市民路口,25.045907999999997,121.54373600000001
96,187,88,981814.3333333335,仁愛延吉街口,25.037465,121.555769
97,259,88,981814.3333333335,南京遼寧街口,25.051761,121.54216799999999
98,395,88,981814.3333333335,安強公園,25.036844,121.57541299999998
99,85,89,989755.2,信義敦化路口,25.033362,121.54911000000001
100,311,89,989755.2,捷運忠孝新生站(2號出口),25.042392,121.532229
101,172,89,989755.2,捷運南京三民站(1號出口),25.051562,121.562891
102,500101001,89,989755.2,捷運科技大樓站,25.02605,121.5436
103,183,89,989755.2,圓環站,25.05379,121.514179
104,60,90,997764.1,中山行政中心,25.064317000000003,121.53348700000001
105,218,90,997764.1,松山高中,25.043298999999998,121.564108
106,29,91,1006134.6,金山愛國路口,25.03164,121.52655
107,294,91,1006134.6,朱崙商場,25.047617000000002,121.54043100000001
108,52,91,1006134.6,建國長春路口,25.054761,121.536925
109,231,91,1006134.6,內政部營建署,25.047805,121.545022
110,104,92,1014911.1,台北花木批發市場,25.004023,121.54073999999999
111,79,93,1022738.1,捷運民權西路站(3號出口),25.061285,121.520205
112,403,94,1031613.6,捷運內湖站(1號出口),25.083868,121.593929
113,404,94,1031613.6,民族延平路口,25.068653,121.51056899999999
114,118,95,1039368.1,大業大同街口,25.136929000000002,121.499152
115,169,96,1047029.1,植物園,25.030015,121.509813
116,303,97,1057298.1,安泰街83巷,25.076691,121.617085
117,76,98,1066211.433333333,新生長春路口,25.056387,121.52752199999999
118,103,98,1066211.433333333,萬華車站,25.033639,121.503028
119,500119048,98,1066211.433333333,臺大大一女舍北側,25.01547,121.53436
120,176,99,1074110.1,興安華城,25.055997,121.542318
121,92,100,1082342.6,開封西寧路口,25.046618,121.50716899999999
122,287,100,1082342.6,第二果菜批發市場,25.066423999999998,121.53735400000001
123,135,100,1082342.6,捷運石牌站(2號出口),25.114513,121.515677
124,388,100,1082342.6,景華街128巷口,24.995563,121.54709199999999
125,40,101,1090128.85,玉成公園,25.04287,121.5864
126,357,101,1090128.85,松友公園,25.034229999999997,121.57636000000001
127,75,102,1097845.85,基隆光復路口,25.0300508,121.557635
128,251,102,1097845.85,華齡公園,25.083023,121.520692
129,312,102,1097845.85,捷運信義安和站(1號出口),25.033323,121.55278700000001
130,149,103,1105816.183333333,北投運動中心,25.116665,121.509621
131,389,103,1105816.183333333,福德國小,25.038324,121.58624499999999
132,257,104,1113884.183333333,錦德公園,25.023316,121.49263700000002
133,261,104,1113884.183333333,健康新城,25.054095,121.560928
134,68,105,1121540.183333333,國興青年路口,25.025865,121.50653600000001
135,147,105,1121540.183333333,士林運動中心,25.089175,121.52181399999999
136,225,105,1121540.183333333,臥龍樂業街口,25.0186,121.55483899999999
137,344,106,1129272.183333333,捷運忠孝復興站(5號出口),25.04264,121.54401000000001
138,86,107,1137601.183333333,民權復興路口,25.062344,121.545138
139,309,107,1137601.183333333,三軍總醫院(松山分院),25.054470000000002,121.55609799999999
140,500101027,107,1137601.183333333,臺灣科技大學後門,25.01182,121.54165
141,144,108,1146126.85,國立政治大學,24.988363,121.576536
142,127,109,1154887.35,東湖國中,25.073276999999997,121.61952099999999
143,226,109,1154887.35,向陽南港路口,25.054365,121.594228
144,361,109,1154887.35,振興醫院,25.1177,121.5222
145,500119049,109,1154887.35,臺大女九舍西南側,25.019370000000002,121.53902
146,155,110,1163009.183333333,瑞光港墘路口,25.076193,121.57505
147,500119071,110,1163009.183333333,臺大計資中心南側,25.02036,121.53992
148,500119067,110,1163009.183333333,臺大社科院西側,25.020529999999997,121.54145
149,121,111,1171356.35,龍江南京路口,25.052979999999998,121.540568
150,156,111,1171356.35,東湖國小,25.06853,121.61538
151,386,111,1171356.35,錦州吉林路口,25.06029,121.52981000000001
152,236,111,1171356.35,關渡自然公園,25.119292,121.46913799999999
153,500101028,111,1171356.35,臺大醫學院附設癌醫中心,25.01426,121.54382
154,189,111,1171356.35,金瑞公園(金龍路),25.087987,121.58781
155,4,112,1179152.1746592321,市民廣場,25.03603611,121.562325
156,253,112,1179152.1746592321,芝山抽水站,25.101423,121.52798999999999
157,113,112,1179152.1746592321,仁愛逸仙路口,25.037724,121.561178
158,372,112,1179152.1746592321,重慶民族路口,25.06825,121.51359
159,222,112,1179152.1746592321,撫順公園,25.064107999999997,121.522065
160,340,112,1179152.1746592321,南京光復路口,25.05143,121.55716000000001
161,300,112,1179152.1746592321,信義基隆路口,25.033209,121.55873100000001
162,258,112,1179152.1746592321,聯合醫院中興院區,25.052096,121.507979
163,248,112,1179152.1746592321,喬治工商,25.027123,121.55556599999998
164,351,112,1179152.1746592321,中山青島路口,25.04469,121.51953999999999
165,129,112,1179152.1746592321,捷運文德站(2號出口),25.078424,121.58456000000001
166,194,112,1179152.1746592321,市民林森路口,25.047957999999998,121.52438799999999
167,363,112,1179152.1746592321,復興南路一段340巷口,25.036170000000002,121.5435
168,8,112,1179152.1746592321,世貿三館,25.03521389,121.5636889
169,53,112,1179152.1746592321,八德市場,25.044781,121.53660900000001
170,106,112,1179152.1746592321,西園艋舺路口,25.032932000000002,121.497674
171,318,112,1179152.1746592321,成功金龍路口,25.084135,121.59483999999999
172,326,112,1179152.1746592321,基隆路一段101巷口,25.04525,121.56709
173,28,112,1179152.1746592321,五常公園,25.04814,121.57467
174,333,112,1179152.1746592321,復盛公園,25.047428,121.561182
175,90,112,1179152.1746592321,老松國小,25.037782999999997,121.50170800000001
176,397,112,1179152.1746592321,劍潭海外青年活動中心,25.079603,121.5237
177,290,112,1179152.1746592321,新生公園,25.068387,121.530188
178,41,112,1179152.1746592321,中研公園,25.047425,121.61370600000001
179,322,112,1179152.1746592321,永盛公園(民生東路一段23巷),25.058835000000002,121.52503999999999
180,316,112,1179152.1746592321,民有一號公園,25.060910999999997,121.54763
181,354,112,1179152.1746592321,建國濟南路口,25.040032999999998,121.53808400000001
182,51,112,1179152.1746592321,建國農安街口,25.065031,121.536775
183,391,112,1179152.1746592321,景仁公園,24.9966,121.540295
184,161,112,1179152.1746592321,大豐公園,25.131142999999998,121.503768
185,203,112,1179152.1746592321,古亭國中,25.024487,121.51057
186,166,112,1179152.1746592321,臺北市立景美女中,24.980601999999998,121.556177
187,324,112,1179152.1746592321,市立圖書館葫蘆堵分館,25.08221,121.5108
188,348,112,1179152.1746592321,民生立體停車場,25.058522,121.55941999999999
189,170,112,1179152.1746592321,新東公園,25.059245,121.56888300000001
190,188,112,1179152.1746592321,社子國小,25.090293,121.50188999999999
191,43,112,1179152.1746592321,凌雲市場,25.035639,121.614154
192,243,112,1179152.1746592321,社子公園,25.090201999999998,121.50621899999999
193,330,112,1179152.1746592321,迪化休閒運動公園,25.07491,121.5115
194,500101003,112,1179152.1746592321,國北教大實小東側門,25.02429,121.54123999999999
195,47,112,1179152.1746592321,捷運忠孝新生站(4號出口),25.042275,121.53393899999999
196,99,112,1179152.1746592321,捷運雙連站(2號出口),25.057866,121.520711
197,101,112,1179152.1746592321,華山文創園區,25.043668,121.52848700000001
198,185,112,1179152.1746592321,?公公園,25.042342,121.54605
199,240,112,1179152.1746592321,南京建國路口,25.052141,121.53680200000001
200,378,112,1179152.1746592321,陽光街321巷口,25.073193,121.57869099999999
201,500101002,112,1179152.1746592321,復興南路二段273號前,25.02565,121.54356999999999
202,500101017,112,1179152.1746592321,羅斯福路三段269巷5號前,25.01913,121.53079
203,500119062,112,1179152.1746592321,臺大公館停車場西北側,25.01345,121.53798
204,500101020,112,1179152.1746592321,溫州停車場,25.02093,121.5331
205,500119080,112,1179152.1746592321,臺大小小福西南側,25.01539,121.53686
206,1289,112,1179152.1746592321,忠山市民活動中心,25.078201999999997,121.62449299999999
207,269,112,1179152.1746592321,三軍總醫院,25.070723,121.590304
208,500101018,112,1179152.1746592321,溫州公園,25.01895,121.53156000000001
209,500101093,112,1179152.1746592321,大安區健康服務中心,25.021469,121.544069
210,500101008,112,1179152.1746592321,新生南路三段52號前,25.02112,121.53407
211,500101092,112,1179152.1746592321,和平實小東北側,25.021641,121.54704
212,500119063,112,1179152.1746592321,臺大第二行政大樓南側,25.016029999999997,121.53635
213,500119065,112,1179152.1746592321,臺大二號館,25.01699,121.53573999999999
214,265,112,1179152.1746592321,中央北路四段30巷口,25.135394,121.478
215,283,112,1179152.1746592321,中央北路四段540巷口,25.127959,121.4677
216,500106002,112,1179152.1746592321,汀州思源街口東南側,25.014697,121.531908
217,500101004,112,1179152.1746592321,和平公園東側,25.02351,121.54281999999999
218,500119056,112,1179152.1746592321,臺大農化新館西側,25.016270000000002,121.53535
219,500101006,112,1179152.1746592321,復興南路二段280號前,25.02429,121.54328000000001
220,500101007,112,1179152.1746592321,復興南路二段340巷口,25.02253,121.54326
221,500101015,112,1179152.1746592321,大安運動中心停車場,25.020348000000002,121.546446
222,500101019,112,1179152.1746592321,和平臥龍街口,25.024461,121.546705
223,500119057,112,1179152.1746592321,臺大五號館西側,25.01666,121.53718
224,500119082,112,1179152.1746592321,臺大四號館東北側,25.01703,121.53781000000001
225,500119073,112,1179152.1746592321,臺大校史館南側,25.01751,121.53568999999999
226,196,112,1179152.1746592321,新湖國小,25.068744,121.58923300000001
227,246,112,1179152.1746592321,國立故宮博物院,25.098743,121.54808600000001
228,500101035,112,1179152.1746592321,臺大土木研究大樓前,25.017870000000002,121.5476
229,500119059,112,1179152.1746592321,臺大共同教室北側,25.01595,121.53791000000001
230,500119081,112,1179152.1746592321,臺大教研館北側,25.013370000000002,121.53908999999999
231,500119064,112,1179152.1746592321,臺大明達館機車停車場,25.01754,121.54398
232,500119074,112,1179152.1746592321,臺大生命科學館西北側,25.01548,121.53825
233,500119089,112,1179152.1746592321,臺大獸醫館南側,25.01791,121.54241999999999
234,500119008,112,1179152.1746592321,臺大檔案展示館,25.01391,121.52895
235,500119072,112,1179152.1746592321,臺大原分所北側,25.018810000000002,121.53868
236,500119069,112,1179152.1746592321,臺大思亮館東南側,25.02074,121.53906
237,500119084,112,1179152.1746592321,臺大鄭江樓北側,25.019000000000002,121.54305
238,500101037,112,1179152.1746592321,臺大國青大樓宿舍前,25.02076,121.54432
239,500119007,112,1179152.1746592321,臺大水源修齊會館,25.014110000000002,121.52996999999999
240,374,112,1179152.1746592321,麗湖國小,25.073322,121.602225
241,402,112,1179152.1746592321,下灣公園,25.065159,121.595611
242,211,112,1179152.1746592321,星雲金湖街口,25.080915,121.59733899999999
243,356,112,1179152.1746592321,臺北市網球中心,25.0674,121.59749
244,500101040,112,1179152.1746592321,臺大綜合體育館停車場前,25.0222,121.53626000000001
245,260,112,1179152.1746592321,民權瑞光路口,25.068616,121.583991
246,335,112,1179152.1746592321,景文中學,24.986301,121.56785500000001
247,500101030,112,1179152.1746592321,臺大永齡生醫工程館,25.0136,121.54656000000001
248,180,112,1179152.1746592321,福華商場,25.06877,121.59265400000001
249,239,112,1179152.1746592321,新明路262巷口,25.056641,121.583403
250,500101021,112,1179152.1746592321,銘傳國小側門,25.01385,121.53549
251,500101011,112,1179152.1746592321,羅斯福路三段333巷9號旁,25.017570000000003,121.53271000000001
252,500106003,112,1179152.1746592321,捷運公館站(1號出口),25.014529,121.534374
253,500101012,112,1179152.1746592321,辛亥路一段30號前,25.01986,121.52982
254,500101016,112,1179152.1746592321,羅斯福路三段245號前,25.019270000000002,121.52989
255,207,112,1179152.1746592321,福安國中,25.103242,121.487477
256,102,112,1179152.1746592321,臺北市客家文化主題公園,25.020429999999998,121.525322
257,141,112,1179152.1746592321,文山行政中心,24.989902,121.569984
258,500101013,112,1179152.1746592321,和平復興路口西北側,25.02543,121.54332
259,247,112,1179152.1746592321,木柵公園,24.987144,121.560627
260,500101091,112,1179152.1746592321,國北教大側門南側,25.022864000000002,121.546622
261,325,112,1179152.1746592321,南京東路六段368巷,25.05827,121.58707
262,500119006,112,1179152.1746592321,臺大卓越研究大樓,25.01466,121.52917
263,366,112,1179152.1746592321,碧湖公園,25.07988,121.58287
264,233,112,1179152.1746592321,捷運忠義站,25.131411,121.47415500000001
265,264,112,1179152.1746592321,秀山區民活動中心,25.145936,121.49300900000001
266,381,112,1179152.1746592321,民權東路六段15巷,25.06853,121.578125
267,500101036,112,1179152.1746592321,臺大萬才館前,25.02032,121.54496999999999
268,500119086,112,1179152.1746592321,臺大圖資系館北側,25.01804,121.53928
269,500119054,112,1179152.1746592321,臺大心理系館南側,25.01941,121.5404
270,500119068,112,1179152.1746592321,臺大社會系館南側,25.01987,121.54175
271,500119044,112,1179152.1746592321,臺大仰萃樓東南側,25.01408,121.53759
272,500119055,112,1179152.1746592321,臺大樂學館東側,25.01793,121.53585
273,500119046,112,1179152.1746592321,臺大管理學院二館北側,25.01355,121.53673
274,500119060,112,1179152.1746592321,臺大共同教室東南側,25.01566,121.53786000000001
275,500101034,112,1179152.1746592321,臺大動物醫院前,25.01576,121.54291
276,500119047,112,1179152.1746592321,臺大土木系館,25.01761,121.53844
277,500119078,112,1179152.1746592321,臺大森林館北側,25.017039999999998,121.53888
278,500119076,112,1179152.1746592321,臺大博理館西側,25.01922,121.54195
279,500101014,112,1179152.1746592321,羅斯福路三段311號前,25.01717,121.53201999999999
280,500106004,112,1179152.1746592321,捷運公館站(4號出口),25.015069,121.533828
281,500101038,112,1179152.1746592321,臺大社科院圖書館前,25.02101,121.54283999999998
282,500101039,112,1179152.1746592321,臺大法人語言訓練中心前,25.02104,121.54081000000001
283,500101005,112,1179152.1746592321,辛亥復興路口西北側,25.02153,121.54298999999999
284,500119070,112,1179152.1746592321,臺大椰林小舖,25.015610000000002,121.53583
285,500101029,112,1179152.1746592321,臺大環研大樓,25.01234,121.54503000000001
286,228,112,1179152.1746592321,捷運萬芳社區站,24.998811,121.56788999999999
287,393,112,1179152.1746592321,內溝溪生態展示館,25.087217000000003,121.623062
288,184,112,1179152.1746592321,劍潭社區,25.084759,121.537892
289,390,112,1179152.1746592321,稻香重三路口,25.139937,121.489594
290,500101041,112,1179152.1746592321,辛亥新生路口東南側,25.02218,121.53473999999999
291,500119045,112,1179152.1746592321,臺大農業陳列館北側,25.01839,121.53403999999999
292,358,112,1179152.1746592321,新明成功路口,25.060579999999998,121.5911
293,256,112,1179152.1746592321,中山中正路口,25.096507,121.527526
294,342,112,1179152.1746592321,文林建民路口,25.107789999999998,121.51468
295,500101025,112,1179152.1746592321,臺灣科技大學側門,25.01295,121.53973
296,500101042,112,1179152.1746592321,基隆長興路口東側,25.01727,121.54471000000001
297,355,112,1179152.1746592321,福山公園,25.04478,121.61758999999999
298,500101094,112,1179152.1746592321,辛亥泰順街口,25.021929999999998,121.53165
299,383,112,1179152.1746592321,一壽橋,24.978479999999998,121.55545
300,384,112,1179152.1746592321,松基公園,25.05491,121.5448
301,500101024,112,1179152.1746592321,臺灣科技大學正門,25.01451,121.54142
302,136,112,1179152.1746592321,國立臺北護理健康大學,25.117457,121.51668000000001
303,500101031,112,1179152.1746592321,臺大男七舍前,25.01537,121.54698
304,500119058,112,1179152.1746592321,臺大舊體育館西側,25.0198,121.53583
305,500119051,112,1179152.1746592321,臺大立體機車停車場,25.01616,121.54251000000001
306,209,112,1179152.1746592321,捷運復興崗站,25.137837,121.486071
307,323,112,1179152.1746592321,新興公園,25.061567999999998,121.52439199999999
308,365,112,1179152.1746592321,陽明大學,25.119120000000002,121.51223
309,500101009,112,1179152.1746592321,新生南路三段66號前,25.01976,121.53383999999998
310,500101023,112,1179152.1746592321,第二學生活動中心,25.012439999999998,121.53661000000001
311,380,112,1179152.1746592321,塔悠疏散門,25.064713,121.567899
312,500106001,112,1179152.1746592321,臺北自來水事業處,25.013741,121.53068
313,337,112,1179152.1746592321,彩虹橋,25.05301,121.57592
314,234,112,1179152.1746592321,永欣綠地,25.124162,121.526071
315,278,112,1179152.1746592321,明美公園,25.062557,121.58606499999999
316,157,112,1179152.1746592321,麗山國小,25.082703,121.571467
317,212,112,1179152.1746592321,北安大直街口,25.084223,121.549452
318,500101010,112,1179152.1746592321,新生南路三段82號前,25.01894,121.53361000000001
319,500119079,112,1179152.1746592321,臺大一號館,25.01698,121.53455
320,50,112,1179152.1746592321,民權運動公園,25.062002,121.56018600000002
321,500119009,112,1179152.1746592321,臺大水源舍區B棟,25.01525,121.53008999999999
322,500119005,112,1179152.1746592321,臺大水源舍區A棟,25.01493,121.53043999999998
323,151,112,1179152.1746592321,考試院,24.987507,121.54982700000001
324,284,112,1179152.1746592321,華聲公園,25.096166,121.52209599999999
325,96,112,1179152.1746592321,三民公園,25.061567,121.566558
326,267,112,1179152.1746592321,八德中坡路口,25.050620000000002,121.58019399999999
327,319,112,1179152.1746592321,民族林森路口,25.068507,121.525322
328,262,112,1179152.1746592321,永安藝文館-表演36房,24.984144,121.56906399999998
329,377,112,1179152.1746592321,南港路二段178巷口,25.053675,121.59969299999999
330,124,112,1179152.1746592321,振華公園,25.115863,121.51816299999999
331,216,112,1179152.1746592321,培英公園,25.082553,121.544601
332,274,112,1179152.1746592321,扶輪親恩公園,25.066997,121.57983300000001
333,368,112,1179152.1746592321,臺灣戲曲中心,25.102079999999997,121.51978999999999
334,500119077,112,1179152.1746592321,臺大博雅館西側,25.0189,121.536
335,44,112,1179152.1746592321,捷運南港軟體園區站(2號出口),25.05973,121.61618700000001
336,201,112,1179152.1746592321,東陽公園,25.057164,121.597924
337,336,112,1179152.1746592321,承德路三段8巷口,25.06382,121.51815
338,171,112,1179152.1746592321,文山運動中心,24.996842,121.559651
339,214,112,1179152.1746592321,基河一期國宅,25.055935,121.578645
340,192,112,1179152.1746592321,捷運葫洲站(1號出口),25.072485,121.607955
341,398,112,1179152.1746592321,聯合醫院陽明院區,25.104546,121.531949
342,142,112,1179152.1746592321,捷運木柵站,24.997996,121.57444
343,268,112,1179152.1746592321,南港高工,25.056655,121.607055
344,143,112,1179152.1746592321,捷運動物園站(2號出口),24.997659,121.57875200000001
345,206,112,1179152.1746592321,捷運辛亥站,25.005385999999998,121.55716000000001
346,73,112,1179152.1746592321,酒泉延平路口,25.072228,121.510195
347,500119066,112,1179152.1746592321,臺大凝態館南側,25.02157,121.53633
348,227,112,1179152.1746592321,麗山高中,25.084244,121.57668000000001
349,500119087,112,1179152.1746592321,臺大總圖書館西南側,25.0169,121.54031
350,500101033,112,1179152.1746592321,臺大男六舍前,25.01664,121.5452
351,191,112,1179152.1746592321,捷運大湖公園站(2號出口),25.083873,121.60206000000001
352,116,112,1179152.1746592321,福林公園,25.096122,121.53021499999998
353,329,112,1179152.1746592321,樂群二明水路口,25.079829999999998,121.55236000000001
354,165,112,1179152.1746592321,捷運唭哩岸站(2號出口),25.120788,121.505693
355,299,112,1179152.1746592321,萬華國中,25.029264,121.499358
356,281,112,1179152.1746592321,松江公園,25.050245,121.532725
357,382,112,1179152.1746592321,聯合醫院和平院區,25.03516,121.50639
358,328,112,1179152.1746592321,一江公園,25.053160000000002,121.53146000000001
359,271,112,1179152.1746592321,伊通長安路口,25.048334,121.53469299999999
360,347,112,1179152.1746592321,博愛寶慶路口,25.041339999999998,121.51135
361,254,112,1179152.1746592321,立功立德路口,25.125377,121.47148200000001
362,375,112,1179152.1746592321,銘傳大學,25.087714000000002,121.526766
363,302,112,1179152.1746592321,敦北公園,25.060745999999998,121.550711
364,500119085,112,1179152.1746592321,臺大電機二館東南側,25.01857,121.54247
365,500119090,112,1179152.1746592321,臺大新體育館東南側,25.02112,121.53591000000002
366,500119061,112,1179152.1746592321,臺大鹿鳴堂東側,25.01511,121.53786000000001
367,500119088,112,1179152.1746592321,臺大黑森林西側,25.01995,121.54347
368,178,112,1179152.1746592321,延平國宅,25.078908,121.510306
369,193,112,1179152.1746592321,舊莊區民活動中心,25.041276999999997,121.61935
370,317,112,1179152.1746592321,雙園國中,25.026823,121.491675
371,69,112,1179152.1746592321,興豐公園,24.999837,121.54777800000001
372,109,112,1179152.1746592321,林安泰古厝,25.071606,121.530805
373,77,112,1179152.1746592321,民生活動中心,25.059147,121.56296999999999
374,385,112,1179152.1746592321,和興路26巷口,24.9856,121.54531000000001
375,208,112,1179152.1746592321,龍山國小,25.035555,121.495342
376,224,112,1179152.1746592321,社正公園,25.088243,121.510535
377,125,112,1179152.1746592321,華西公園,25.038609,121.49849499999999
378,237,112,1179152.1746592321,文山第二行政中心,25.001148999999998,121.551418
379,98,112,1179152.1746592321,羅斯福景隆街口,24.999378,121.54019699999999
380,205,112,1179152.1746592321,木柵光輝路口,24.988241,121.55561000000002
381,168,112,1179152.1746592321,河堤國小,25.022879999999997,121.522855
382,272,112,1179152.1746592321,忠順區民活動中心,24.984707,121.563125
383,296,112,1179152.1746592321,萬和二號公園,25.001545,121.536446
384,370,112,1179152.1746592321,新和國小,25.02656,121.50242
385,500101026,112,1179152.1746592321,公館公園,25.01137,121.54061999999999
386,500119043,112,1179152.1746592321,臺大男八舍東側,25.01729,121.54531000000001
387,58,112,1179152.1746592321,捷運善導寺站(1號出口),25.045267000000003,121.5222
388,341,112,1179152.1746592321,捷運芝山站(1號出口),25.100939999999998,121.52243
389,177,112,1179152.1746592321,葫蘆國小,25.082538,121.50749499999999
390,18,112,1179152.1746592321,臺北市藝文推廣處,25.049408,121.55261000000002
391,360,112,1179152.1746592321,民權建國路口,25.062520000000003,121.53753999999999
392,292,112,1179152.1746592321,合心廣場,25.046360999999997,121.582848
393,352,112,1179152.1746592321,民權迪化街口,25.06318,121.50943999999998
394,159,112,1179152.1746592321,捷運西湖站(1號出口),25.082866,121.566695
395,321,112,1179152.1746592321,莒光大埔街口,25.031334,121.50508500000001
396,379,112,1179152.1746592321,春光公園,25.042619000000002,121.58076200000001
397,298,112,1179152.1746592321,太原五原路口,25.056458,121.516976
398,373,112,1179152.1746592321,中崙福成宮,25.04525,121.54663500000001
399,19,112,1179152.1746592321,象山公園,25.02863,121.56981
400,130,112,1179152.1746592321,羅斯福寧波東街口,25.031445,121.519411
401,153,112,1179152.1746592321,蔣渭水紀念公園,25.059885,121.516299
402,400,112,1179152.1746592321,和平敦化路口,25.02444,121.549076
403,33,112,1179152.1746592321,中崙高中,25.048779999999997,121.56087
404,95,112,1179152.1746592321,東園國小,25.023393,121.497679
405,148,112,1179152.1746592321,捷運明德站,25.110331,121.518316
406,255,112,1179152.1746592321,光復南路22巷口,25.046914,121.557674
407,315,112,1179152.1746592321,捷運萬隆站(1號出口),25.001447,121.53903700000001
408,250,112,1179152.1746592321,忠孝東路三段217巷口,25.04184,121.539873
409,396,112,1179152.1746592321,新東街51巷口,25.061501,121.563318
410,213,112,1179152.1746592321,蘭雅國小,25.107782,121.52310700000001
411,331,112,1179152.1746592321,民族玉門街口,25.06859,121.51973999999998
412,338,112,1179152.1746592321,成德國中,25.04573,121.58793999999999
413,362,112,1179152.1746592321,和平金山路口,25.02672,121.52533000000001
414,286,112,1179152.1746592321,德明財經科技大學,25.086372,121.56571299999999
415,232,112,1179152.1746592321,中山天母路口,25.118843,121.529738
416,310,112,1179152.1746592321,國立臺北大學(臺北校區),25.057923000000002,121.542732
417,500119053,112,1179152.1746592321,臺大天文數學館南側,25.021079999999998,121.53783
418,500119083,112,1179152.1746592321,臺大新生教室南側,25.0196,121.53846000000001
419,9,112,1179152.1746592321,松德站,25.031785,121.57448000000001
420,230,112,1179152.1746592321,湖光國宅,25.075366,121.58081100000001
421,297,112,1179152.1746592321,長沙公園,25.041701999999997,121.499922
422,500101032,112,1179152.1746592321,臺大男一舍前,25.016370000000002,121.54535
423,500119052,112,1179152.1746592321,臺大工綜館南側,25.01857,121.54059
424,154,113,1187178.929306072,中正基河路口,25.093396,121.51986699999999
425,343,113,1187178.929306072,忠孝東路六段185巷口,25.049039999999998,121.58755
426,34,114,1194918.449306072,捷運行天宮站(1號出口),25.058369,121.53293400000001
427,59,114,1194918.449306072,林森公園,25.052227,121.525805
428,252,114,1194918.449306072,大安運動中心,25.020544,121.545608
429,105,114,1194918.449306072,峨嵋停車場,25.044412,121.50540900000001
430,273,114,1194918.449306072,芝山國小,25.110437,121.535954
431,359,114,1194918.449306072,健安新城,25.05601,121.56358
432,74,114,1194918.449306072,信義連雲街口,25.033817000000003,121.530547
433,320,114,1194918.449306072,捷運南京三民站(3號出口),25.051287,121.56426200000001
434,295,114,1194918.449306072,敦親公園,25.023473000000003,121.541083
435,350,114,1194918.449306072,復興南路二段128巷口,25.02904,121.54336
436,349,114,1194918.449306072,重慶酒泉街口,25.07183,121.51364
437,392,114,1194918.449306072,南京東興路口,25.051489,121.565347
438,80,114,1194918.449306072,華江高中,25.02751,121.495869
439,282,114,1194918.449306072,富台公園,25.041935000000002,121.571999
440,123,114,1194918.449306072,天母運動公園,25.116325,121.534136
441,327,114,1194918.449306072,重慶南海路口,25.031579999999998,121.51463999999999
442,145,114,1194918.449306072,樹德公園,25.066688,121.516149
443,158,114,1194918.449306072,捷運東湖站,25.067026000000002,121.61355
444,190,114,1194918.449306072,捷運大直站(3號出口),25.079278,121.546683
445,394,114,1194918.449306072,松德虎林街口,25.038352,121.57624799999999
446,48,114,1194918.449306072,南港車站(忠孝東路),25.05247,121.608202
447,128,114,1194918.449306072,成功國宅,25.026808,121.546726
448,197,114,1194918.449306072,饒河夜市(八德路側),25.049845,121.57188500000001
449,276,114,1194918.449306072,三興公園,25.028679,121.55932
450,277,114,1194918.449306072,中山堂,25.044091,121.51025
451,23,115,1202652.3693060721,東新國小,25.055073999999998,121.60279799999999
452,204,115,1202652.3693060721,臺北市立大學(天母校區),25.113625,121.53742
453,345,115,1202652.3693060721,中正運動中心,25.03806,121.51943
454,107,115,1202652.3693060721,捷運小南門站(1號出口),25.036402,121.509422
455,137,116,1210487.8693060721,國防大學,25.137976000000002,121.49306599999998
456,72,117,1219145.8693060721,新生長安路口,25.048610999999998,121.52934599999999
457,367,117,1219145.8693060721,豐年公園,25.13597,121.497019
458,263,118,1227758.8693060721,至善臨溪路口,25.097103,121.542153
459,353,119,1236122.8693060721,紀州庵,25.02088,121.52049
460,376,120,1243768.8693060721,民生建國路口,25.057778,121.536915
461,167,121,1251487.8693060721,臺北市立天文館,25.095714,121.518046
462,305,122,1260168.8693060721,碧山公園,25.087413,121.592253
463,179,123,1268076.8693060721,南港公園,25.041355,121.59073000000001
464,163,124,1276677.8693060721,捷運麟光站,25.018097,121.559279
465,369,124,1276677.8693060721,世新大學,24.98862,121.54361000000002
466,39,125,1286054.8693060721,南港世貿公園,25.058000000000003,121.61421999999999
467,346,125,1286054.8693060721,陽明高中,25.09157,121.51669
468,217,126,1294398.3693060721,臺北花市,25.062645,121.57426699999999
469,91,127,1303960.6193060721,市立美術館,25.070629,121.52326799999999
470,100,127,1303960.6193060721,金山市民路口,25.045753,121.530697
471,242,127,1303960.6193060721,關渡宮,25.117472,121.46316100000001
472,220,127,1303960.6193060721,大稻埕公園,25.059162,121.510512
473,229,128,1313122.3693060721,市民太原路口,25.049394,121.51461100000002
474,500119075,129,1322419.3693060721,臺大第一活動中心西南側,25.01761,121.53995
475,288,130,1330564.3693060721,濟南紹興路口,25.041928,121.52459099999999
476,371,131,1339580.3693060721,南門國中,25.035320000000002,121.50833999999999
477,339,132,1351910.3693060721,重慶國中,25.07581,121.51816000000001
478,219,133,1361409.3693060721,大理高中,25.031147,121.49073999999999
479,186,134,1373723.3693060721,臺北市立大學,25.035414000000003,121.514218
480,195,135,1382961.3693060721,信義杭州路口(中華電信總公司),25.035851,121.523987
481,131,136,1394785.3693060721,洲子二號公園,25.079322,121.568688
482,266,136,1394785.3693060721,洲子一號公園,25.080257999999997,121.564806
483,126,137,1403849.8693060721,敦化基隆路口,25.022073000000002,121.548336
484,235,137,1403849.8693060721,市民東興路口,25.048460000000002,121.565928
485,17,138,1411938.869306072,民生光復路口,25.05862,121.55514
486,64,139,1421048.869306072,國家圖書館,25.037773,121.51702900000001
487,150,140,1429433.869306072,松德公園,25.036568,121.57343
488,334,141,1437554.869306072,敦化南路二段103巷口,25.028973,121.549024
489,238,142,1445759.869306072,瑞湖陽光街口,25.073119000000002,121.575965
490,38,143,1455577.869306072,臺灣師範大學(圖書館),25.026603,121.52944
491,245,144,1465456.869306072,捷運中山國中站,25.060632000000002,121.544028
492,7,145,1474941.869306072,信義廣場(台北101),25.03303889,121.56561940000002
493,21,146,1485481.869306072,民生敦化路口,25.057985000000002,121.54898200000001
494,3,147,1495179.869306072,台北市政府,25.03779722,121.56516940000002
495,111,148,1506090.869306072,捷運忠孝復興站(2號出口),25.040184,121.543497
496,174,149,1515224.869306072,捷運小巨蛋站(5號出口),25.051702,121.55305700000001
497,82,150,1524441.869306072,捷運西門站(3號出口),25.041778,121.508693
498,120,151,1535784.869306072,捷運龍山寺站(1號出口),25.035479000000002,121.50026000000001
499,55,152,1545761.869306072,臺北田徑場,25.049505,121.54940800000001
500,221,153,1557792.869306072,泰和公園,25.019276,121.57106999999999
501,210,154,1573373.869306072,樂群二敬業四路口,25.079766,121.55813500000001
502,46,155,1586700.869306072,南港國小,25.056504,121.61138899999999
