index,station_no,class,Diff,name,lat,lng
0,1,0,0.0,捷運市政府站(3號出口),25.04085789,121.5679044
1,61,1,29268.0,台灣科技大學,25.0131,121.539723
2,36,2,50919.0,臺大資訊大樓,25.02101,121.54153000000001
3,500101022,3,74497.0,捷運公館站(2號出口),25.01491,121.53438
4,134,4,92522.0,捷運芝山站(2號出口),25.103360000000002,121.52262900000001
5,97,5,108865.0,捷運劍潭站(2號出口),25.082825,121.524721
6,132,6,125658.0,羅斯福新生南路口,25.01603085,121.5331757
7,6,7,145955.0,臺北南山廣場,25.034047,121.565973
8,5,8,161916.0,興雅國中,25.03656389,121.56866389999999
9,45,9,175803.0,捷運公館站(2號出口),25.01476,121.53453799999998
10,291,10,189531.0,捷運松山站(3號出口),25.049616,121.577459
11,78,11,202910.0,捷運圓山站(2號出口),25.071824,121.519287
12,94,12,215348.0,捷運景美站,24.993254,121.541059
13,202,13,226787.0,捷運關渡站,25.124646,121.46733600000002
14,49,14,243579.0,龍門廣場,25.040901,121.548252
15,175,15,254295.0,捷運南京復興站(5號出口),25.051617999999998,121.544847
16,12,16,266922.0,臺北醫學大學,25.026679,121.561747
17,117,17,281198.0,捷運北投站,25.132581,121.498618
18,93,18,293052.0,吳興公車總站,25.023877,121.56983600000001
19,152,19,305450.0,百齡國小,25.08521,121.519175
20,313,20,318855.0,光華商場,25.04515,121.532738
21,215,21,331321.0,捷運北門站(3號出口),25.04993,121.51036699999999
22,293,22,342152.0,自來水園區,25.013284,121.53003700000001
23,139,23,352805.0,永樂市場,25.054501000000002,121.510549
24,119,24,365519.0,捷運劍南路站(2號出口),25.08418,121.555116
25,27,25,377097.0,捷運南港展覽館站(5號出口),25.05469,121.61668999999999
26,289,25,377097.0,牯嶺公園,25.023377,121.51883500000001
27,364,26,387987.0,嘉興公園,25.02109,121.55219
28,67,27,400133.5,捷運臺大醫院(4號出口),25.042973,121.516428
29,115,27,400133.5,臺北轉運站,25.048222,121.520526
30,164,28,411428.0,捷運奇岩站,25.126286,121.500801
31,122,29,422538.0,捷運港墘站(2號出口),25.079666,121.57583999999999
32,37,30,433564.5,捷運東門站(4號出口),25.0337,121.52898799999998
33,306,30,433564.5,捷運古亭站(6號出口),25.027781,121.52198
34,88,30,433564.5,捷運象山站,25.032922,121.57087
35,279,30,433564.5,南港車站(興華路),25.053432,121.60633100000001
36,2,31,444437.5,捷運國父紀念館站(2號出口),25.041254000000002,121.55742
37,173,32,455162.5,捷運松江南京站(7號出口),25.052181,121.53321100000001
38,146,33,467531.5,捷運士林站(2號出口),25.092546,121.526556
39,24,34,479000.0,信義建國路口,25.03293,121.53747
40,87,34,479000.0,捷運大安站,25.033078,121.543057
41,70,35,490546.5,捷運台北101/世貿站,25.032752,121.561645
42,83,36,503404.5,捷運大安森林公園站,25.033344,121.534236
43,30,37,518615.5,基隆長興路口,25.017054,121.544352
44,89,38,529693.5,和平重慶路口,25.027323000000003,121.51638500000001
45,4,39,540684.5254629629,市民廣場,25.03603611,121.562325
46,253,39,540684.5254629629,芝山抽水站,25.101423,121.52798999999999
47,113,39,540684.5254629629,仁愛逸仙路口,25.037724,121.561178
48,372,39,540684.5254629629,重慶民族路口,25.06825,121.51359
49,222,39,540684.5254629629,撫順公園,25.064107999999997,121.522065
50,340,39,540684.5254629629,南京光復路口,25.05143,121.55716000000001
51,300,39,540684.5254629629,信義基隆路口,25.033209,121.55873100000001
52,258,39,540684.5254629629,聯合醫院中興院區,25.052096,121.507979
53,248,39,540684.5254629629,喬治工商,25.027123,121.55556599999998
54,351,39,540684.5254629629,中山青島路口,25.04469,121.51953999999999
55,129,39,540684.5254629629,捷運文德站(2號出口),25.078424,121.58456000000001
56,194,39,540684.5254629629,市民林森路口,25.047957999999998,121.52438799999999
57,363,39,540684.5254629629,復興南路一段340巷口,25.036170000000002,121.5435
58,8,39,540684.5254629629,世貿三館,25.03521389,121.5636889
59,53,39,540684.5254629629,八德市場,25.044781,121.53660900000001
60,106,39,540684.5254629629,西園艋舺路口,25.032932000000002,121.497674
61,318,39,540684.5254629629,成功金龍路口,25.084135,121.59483999999999
62,326,39,540684.5254629629,基隆路一段101巷口,25.04525,121.56709
63,28,39,540684.5254629629,五常公園,25.04814,121.57467
64,333,39,540684.5254629629,復盛公園,25.047428,121.561182
65,90,39,540684.5254629629,老松國小,25.037782999999997,121.50170800000001
66,397,39,540684.5254629629,劍潭海外青年活動中心,25.079603,121.5237
67,290,39,540684.5254629629,新生公園,25.068387,121.530188
68,41,39,540684.5254629629,中研公園,25.047425,121.61370600000001
69,322,39,540684.5254629629,永盛公園(民生東路一段23巷),25.058835000000002,121.52503999999999
70,316,39,540684.5254629629,民有一號公園,25.060910999999997,121.54763
71,354,39,540684.5254629629,建國濟南路口,25.040032999999998,121.53808400000001
72,51,39,540684.5254629629,建國農安街口,25.065031,121.536775
73,391,39,540684.5254629629,景仁公園,24.9966,121.540295
74,161,39,540684.5254629629,大豐公園,25.131142999999998,121.503768
75,203,39,540684.5254629629,古亭國中,25.024487,121.51057
76,166,39,540684.5254629629,臺北市立景美女中,24.980601999999998,121.556177
77,324,39,540684.5254629629,市立圖書館葫蘆堵分館,25.08221,121.5108
78,348,39,540684.5254629629,民生立體停車場,25.058522,121.55941999999999
79,170,39,540684.5254629629,新東公園,25.059245,121.56888300000001
80,188,39,540684.5254629629,社子國小,25.090293,121.50188999999999
81,43,39,540684.5254629629,凌雲市場,25.035639,121.614154
82,243,39,540684.5254629629,社子公園,25.090201999999998,121.50621899999999
83,330,39,540684.5254629629,迪化休閒運動公園,25.07491,121.5115
84,500101003,39,540684.5254629629,國北教大實小東側門,25.02429,121.54123999999999
85,47,39,540684.5254629629,捷運忠孝新生站(4號出口),25.042275,121.53393899999999
86,99,39,540684.5254629629,捷運雙連站(2號出口),25.057866,121.520711
87,101,39,540684.5254629629,華山文創園區,25.043668,121.52848700000001
88,185,39,540684.5254629629,?公公園,25.042342,121.54605
89,240,39,540684.5254629629,南京建國路口,25.052141,121.53680200000001
90,378,39,540684.5254629629,陽光街321巷口,25.073193,121.57869099999999
91,500101002,39,540684.5254629629,復興南路二段273號前,25.02565,121.54356999999999
92,500101017,39,540684.5254629629,羅斯福路三段269巷5號前,25.01913,121.53079
93,500119062,39,540684.5254629629,臺大公館停車場西北側,25.01345,121.53798
94,500101020,39,540684.5254629629,溫州停車場,25.02093,121.5331
95,500119080,39,540684.5254629629,臺大小小福西南側,25.01539,121.53686
96,1289,39,540684.5254629629,忠山市民活動中心,25.078201999999997,121.62449299999999
97,269,39,540684.5254629629,三軍總醫院,25.070723,121.590304
98,500101018,39,540684.5254629629,溫州公園,25.01895,121.53156000000001
99,500101093,39,540684.5254629629,大安區健康服務中心,25.021469,121.544069
100,500101008,39,540684.5254629629,新生南路三段52號前,25.02112,121.53407
101,500101092,39,540684.5254629629,和平實小東北側,25.021641,121.54704
102,500119063,39,540684.5254629629,臺大第二行政大樓南側,25.016029999999997,121.53635
103,500119065,39,540684.5254629629,臺大二號館,25.01699,121.53573999999999
104,265,39,540684.5254629629,中央北路四段30巷口,25.135394,121.478
105,283,39,540684.5254629629,中央北路四段540巷口,25.127959,121.4677
106,500106002,39,540684.5254629629,汀州思源街口東南側,25.014697,121.531908
107,500101004,39,540684.5254629629,和平公園東側,25.02351,121.54281999999999
108,500119056,39,540684.5254629629,臺大農化新館西側,25.016270000000002,121.53535
109,500101006,39,540684.5254629629,復興南路二段280號前,25.02429,121.54328000000001
110,500101007,39,540684.5254629629,復興南路二段340巷口,25.02253,121.54326
111,500101015,39,540684.5254629629,大安運動中心停車場,25.020348000000002,121.546446
112,500101019,39,540684.5254629629,和平臥龍街口,25.024461,121.546705
113,500119057,39,540684.5254629629,臺大五號館西側,25.01666,121.53718
114,500119082,39,540684.5254629629,臺大四號館東北側,25.01703,121.53781000000001
115,500119073,39,540684.5254629629,臺大校史館南側,25.01751,121.53568999999999
116,196,39,540684.5254629629,新湖國小,25.068744,121.58923300000001
117,246,39,540684.5254629629,國立故宮博物院,25.098743,121.54808600000001
118,500101035,39,540684.5254629629,臺大土木研究大樓前,25.017870000000002,121.5476
119,500119059,39,540684.5254629629,臺大共同教室北側,25.01595,121.53791000000001
120,500119081,39,540684.5254629629,臺大教研館北側,25.013370000000002,121.53908999999999
121,500119064,39,540684.5254629629,臺大明達館機車停車場,25.01754,121.54398
122,500119074,39,540684.5254629629,臺大生命科學館西北側,25.01548,121.53825
123,500119089,39,540684.5254629629,臺大獸醫館南側,25.01791,121.54241999999999
124,500119008,39,540684.5254629629,臺大檔案展示館,25.01391,121.52895
125,500119072,39,540684.5254629629,臺大原分所北側,25.018810000000002,121.53868
126,500119069,39,540684.5254629629,臺大思亮館東南側,25.02074,121.53906
127,500119084,39,540684.5254629629,臺大鄭江樓北側,25.019000000000002,121.54305
128,500101037,39,540684.5254629629,臺大國青大樓宿舍前,25.02076,121.54432
129,500119007,39,540684.5254629629,臺大水源修齊會館,25.014110000000002,121.52996999999999
130,374,39,540684.5254629629,麗湖國小,25.073322,121.602225
131,402,39,540684.5254629629,下灣公園,25.065159,121.595611
132,211,39,540684.5254629629,星雲金湖街口,25.080915,121.59733899999999
133,356,39,540684.5254629629,臺北市網球中心,25.0674,121.59749
134,500101040,39,540684.5254629629,臺大綜合體育館停車場前,25.0222,121.53626000000001
135,260,39,540684.5254629629,民權瑞光路口,25.068616,121.583991
136,335,39,540684.5254629629,景文中學,24.986301,121.56785500000001
137,500101030,39,540684.5254629629,臺大永齡生醫工程館,25.0136,121.54656000000001
138,180,39,540684.5254629629,福華商場,25.06877,121.59265400000001
139,239,39,540684.5254629629,新明路262巷口,25.056641,121.583403
140,500101021,39,540684.5254629629,銘傳國小側門,25.01385,121.53549
141,500101011,39,540684.5254629629,羅斯福路三段333巷9號旁,25.017570000000003,121.53271000000001
142,500106003,39,540684.5254629629,捷運公館站(1號出口),25.014529,121.534374
143,500101012,39,540684.5254629629,辛亥路一段30號前,25.01986,121.52982
144,500101016,39,540684.5254629629,羅斯福路三段245號前,25.019270000000002,121.52989
145,207,39,540684.5254629629,福安國中,25.103242,121.487477
146,102,39,540684.5254629629,臺北市客家文化主題公園,25.020429999999998,121.525322
147,141,39,540684.5254629629,文山行政中心,24.989902,121.569984
148,500101013,39,540684.5254629629,和平復興路口西北側,25.02543,121.54332
149,247,39,540684.5254629629,木柵公園,24.987144,121.560627
150,500101091,39,540684.5254629629,國北教大側門南側,25.022864000000002,121.546622
151,325,39,540684.5254629629,南京東路六段368巷,25.05827,121.58707
152,500119006,39,540684.5254629629,臺大卓越研究大樓,25.01466,121.52917
153,366,39,540684.5254629629,碧湖公園,25.07988,121.58287
154,233,39,540684.5254629629,捷運忠義站,25.131411,121.47415500000001
155,264,39,540684.5254629629,秀山區民活動中心,25.145936,121.49300900000001
156,381,39,540684.5254629629,民權東路六段15巷,25.06853,121.578125
157,500101036,39,540684.5254629629,臺大萬才館前,25.02032,121.54496999999999
158,500119086,39,540684.5254629629,臺大圖資系館北側,25.01804,121.53928
159,500119054,39,540684.5254629629,臺大心理系館南側,25.01941,121.5404
160,500119068,39,540684.5254629629,臺大社會系館南側,25.01987,121.54175
161,500119044,39,540684.5254629629,臺大仰萃樓東南側,25.01408,121.53759
162,500119055,39,540684.5254629629,臺大樂學館東側,25.01793,121.53585
163,500119046,39,540684.5254629629,臺大管理學院二館北側,25.01355,121.53673
164,500119060,39,540684.5254629629,臺大共同教室東南側,25.01566,121.53786000000001
165,500101034,39,540684.5254629629,臺大動物醫院前,25.01576,121.54291
166,500119047,39,540684.5254629629,臺大土木系館,25.01761,121.53844
167,500119078,39,540684.5254629629,臺大森林館北側,25.017039999999998,121.53888
168,500119076,39,540684.5254629629,臺大博理館西側,25.01922,121.54195
169,500101014,39,540684.5254629629,羅斯福路三段311號前,25.01717,121.53201999999999
170,500106004,39,540684.5254629629,捷運公館站(4號出口),25.015069,121.533828
171,500101038,39,540684.5254629629,臺大社科院圖書館前,25.02101,121.54283999999998
172,500101039,39,540684.5254629629,臺大法人語言訓練中心前,25.02104,121.54081000000001
173,500101005,39,540684.5254629629,辛亥復興路口西北側,25.02153,121.54298999999999
174,500119070,39,540684.5254629629,臺大椰林小舖,25.015610000000002,121.53583
175,500101029,39,540684.5254629629,臺大環研大樓,25.01234,121.54503000000001
176,228,39,540684.5254629629,捷運萬芳社區站,24.998811,121.56788999999999
177,393,39,540684.5254629629,內溝溪生態展示館,25.087217000000003,121.623062
178,184,39,540684.5254629629,劍潭社區,25.084759,121.537892
179,390,39,540684.5254629629,稻香重三路口,25.139937,121.489594
180,500101041,39,540684.5254629629,辛亥新生路口東南側,25.02218,121.53473999999999
181,500119045,39,540684.5254629629,臺大農業陳列館北側,25.01839,121.53403999999999
182,358,39,540684.5254629629,新明成功路口,25.060579999999998,121.5911
183,256,39,540684.5254629629,中山中正路口,25.096507,121.527526
184,342,39,540684.5254629629,文林建民路口,25.107789999999998,121.51468
185,500101025,39,540684.5254629629,臺灣科技大學側門,25.01295,121.53973
186,500101042,39,540684.5254629629,基隆長興路口東側,25.01727,121.54471000000001
187,355,39,540684.5254629629,福山公園,25.04478,121.61758999999999
188,500101094,39,540684.5254629629,辛亥泰順街口,25.021929999999998,121.53165
189,383,39,540684.5254629629,一壽橋,24.978479999999998,121.55545
190,384,39,540684.5254629629,松基公園,25.05491,121.5448
191,500101024,39,540684.5254629629,臺灣科技大學正門,25.01451,121.54142
192,136,39,540684.5254629629,國立臺北護理健康大學,25.117457,121.51668000000001
193,500101031,39,540684.5254629629,臺大男七舍前,25.01537,121.54698
194,500119058,39,540684.5254629629,臺大舊體育館西側,25.0198,121.53583
195,500119051,39,540684.5254629629,臺大立體機車停車場,25.01616,121.54251000000001
196,209,39,540684.5254629629,捷運復興崗站,25.137837,121.486071
197,323,39,540684.5254629629,新興公園,25.061567999999998,121.52439199999999
198,365,39,540684.5254629629,陽明大學,25.119120000000002,121.51223
199,500101009,39,540684.5254629629,新生南路三段66號前,25.01976,121.53383999999998
200,500101023,39,540684.5254629629,第二學生活動中心,25.012439999999998,121.53661000000001
201,380,39,540684.5254629629,塔悠疏散門,25.064713,121.567899
202,500106001,39,540684.5254629629,臺北自來水事業處,25.013741,121.53068
203,337,39,540684.5254629629,彩虹橋,25.05301,121.57592
204,234,39,540684.5254629629,永欣綠地,25.124162,121.526071
205,278,39,540684.5254629629,明美公園,25.062557,121.58606499999999
206,157,39,540684.5254629629,麗山國小,25.082703,121.571467
207,212,39,540684.5254629629,北安大直街口,25.084223,121.549452
208,500101010,39,540684.5254629629,新生南路三段82號前,25.01894,121.53361000000001
209,500119079,39,540684.5254629629,臺大一號館,25.01698,121.53455
210,50,39,540684.5254629629,民權運動公園,25.062002,121.56018600000002
211,500119009,39,540684.5254629629,臺大水源舍區B棟,25.01525,121.53008999999999
212,500119005,39,540684.5254629629,臺大水源舍區A棟,25.01493,121.53043999999998
213,151,39,540684.5254629629,考試院,24.987507,121.54982700000001
214,284,39,540684.5254629629,華聲公園,25.096166,121.52209599999999
215,96,39,540684.5254629629,三民公園,25.061567,121.566558
216,267,39,540684.5254629629,八德中坡路口,25.050620000000002,121.58019399999999
217,319,39,540684.5254629629,民族林森路口,25.068507,121.525322
218,262,39,540684.5254629629,永安藝文館-表演36房,24.984144,121.56906399999998
219,377,39,540684.5254629629,南港路二段178巷口,25.053675,121.59969299999999
220,124,39,540684.5254629629,振華公園,25.115863,121.51816299999999
221,216,39,540684.5254629629,培英公園,25.082553,121.544601
222,274,39,540684.5254629629,扶輪親恩公園,25.066997,121.57983300000001
223,368,39,540684.5254629629,臺灣戲曲中心,25.102079999999997,121.51978999999999
224,500119077,39,540684.5254629629,臺大博雅館西側,25.0189,121.536
225,44,39,540684.5254629629,捷運南港軟體園區站(2號出口),25.05973,121.61618700000001
226,201,39,540684.5254629629,東陽公園,25.057164,121.597924
227,336,39,540684.5254629629,承德路三段8巷口,25.06382,121.51815
228,171,39,540684.5254629629,文山運動中心,24.996842,121.559651
229,214,39,540684.5254629629,基河一期國宅,25.055935,121.578645
230,192,39,540684.5254629629,捷運葫洲站(1號出口),25.072485,121.607955
231,398,39,540684.5254629629,聯合醫院陽明院區,25.104546,121.531949
232,142,39,540684.5254629629,捷運木柵站,24.997996,121.57444
233,268,39,540684.5254629629,南港高工,25.056655,121.607055
234,143,39,540684.5254629629,捷運動物園站(2號出口),24.997659,121.57875200000001
235,206,39,540684.5254629629,捷運辛亥站,25.005385999999998,121.55716000000001
236,73,39,540684.5254629629,酒泉延平路口,25.072228,121.510195
237,500119066,39,540684.5254629629,臺大凝態館南側,25.02157,121.53633
238,227,39,540684.5254629629,麗山高中,25.084244,121.57668000000001
239,500119087,39,540684.5254629629,臺大總圖書館西南側,25.0169,121.54031
240,500101033,39,540684.5254629629,臺大男六舍前,25.01664,121.5452
241,191,39,540684.5254629629,捷運大湖公園站(2號出口),25.083873,121.60206000000001
242,116,39,540684.5254629629,福林公園,25.096122,121.53021499999998
243,329,39,540684.5254629629,樂群二明水路口,25.079829999999998,121.55236000000001
244,165,39,540684.5254629629,捷運唭哩岸站(2號出口),25.120788,121.505693
245,299,39,540684.5254629629,萬華國中,25.029264,121.499358
246,281,39,540684.5254629629,松江公園,25.050245,121.532725
247,382,39,540684.5254629629,聯合醫院和平院區,25.03516,121.50639
248,328,39,540684.5254629629,一江公園,25.053160000000002,121.53146000000001
249,271,39,540684.5254629629,伊通長安路口,25.048334,121.53469299999999
250,347,39,540684.5254629629,博愛寶慶路口,25.041339999999998,121.51135
251,254,39,540684.5254629629,立功立德路口,25.125377,121.47148200000001
252,375,39,540684.5254629629,銘傳大學,25.087714000000002,121.526766
253,302,39,540684.5254629629,敦北公園,25.060745999999998,121.550711
254,500119085,39,540684.5254629629,臺大電機二館東南側,25.01857,121.54247
255,500119090,39,540684.5254629629,臺大新體育館東南側,25.02112,121.53591000000002
256,500119061,39,540684.5254629629,臺大鹿鳴堂東側,25.01511,121.53786000000001
257,500119088,39,540684.5254629629,臺大黑森林西側,25.01995,121.54347
258,178,39,540684.5254629629,延平國宅,25.078908,121.510306
259,193,39,540684.5254629629,舊莊區民活動中心,25.041276999999997,121.61935
260,317,39,540684.5254629629,雙園國中,25.026823,121.491675
261,69,39,540684.5254629629,興豐公園,24.999837,121.54777800000001
262,109,39,540684.5254629629,林安泰古厝,25.071606,121.530805
263,77,39,540684.5254629629,民生活動中心,25.059147,121.56296999999999
264,385,39,540684.5254629629,和興路26巷口,24.9856,121.54531000000001
265,208,39,540684.5254629629,龍山國小,25.035555,121.495342
266,224,39,540684.5254629629,社正公園,25.088243,121.510535
267,125,39,540684.5254629629,華西公園,25.038609,121.49849499999999
268,237,39,540684.5254629629,文山第二行政中心,25.001148999999998,121.551418
269,98,39,540684.5254629629,羅斯福景隆街口,24.999378,121.54019699999999
270,205,39,540684.5254629629,木柵光輝路口,24.988241,121.55561000000002
271,168,39,540684.5254629629,河堤國小,25.022879999999997,121.522855
272,272,39,540684.5254629629,忠順區民活動中心,24.984707,121.563125
273,296,39,540684.5254629629,萬和二號公園,25.001545,121.536446
274,370,39,540684.5254629629,新和國小,25.02656,121.50242
275,500101026,39,540684.5254629629,公館公園,25.01137,121.54061999999999
276,500119043,39,540684.5254629629,臺大男八舍東側,25.01729,121.54531000000001
277,58,39,540684.5254629629,捷運善導寺站(1號出口),25.045267000000003,121.5222
278,341,39,540684.5254629629,捷運芝山站(1號出口),25.100939999999998,121.52243
279,177,39,540684.5254629629,葫蘆國小,25.082538,121.50749499999999
280,18,39,540684.5254629629,臺北市藝文推廣處,25.049408,121.55261000000002
281,360,39,540684.5254629629,民權建國路口,25.062520000000003,121.53753999999999
282,292,39,540684.5254629629,合心廣場,25.046360999999997,121.582848
283,352,39,540684.5254629629,民權迪化街口,25.06318,121.50943999999998
284,159,39,540684.5254629629,捷運西湖站(1號出口),25.082866,121.566695
285,321,39,540684.5254629629,莒光大埔街口,25.031334,121.50508500000001
286,379,39,540684.5254629629,春光公園,25.042619000000002,121.58076200000001
287,298,39,540684.5254629629,太原五原路口,25.056458,121.516976
288,373,39,540684.5254629629,中崙福成宮,25.04525,121.54663500000001
289,19,39,540684.5254629629,象山公園,25.02863,121.56981
290,130,39,540684.5254629629,羅斯福寧波東街口,25.031445,121.519411
291,153,39,540684.5254629629,蔣渭水紀念公園,25.059885,121.516299
292,400,39,540684.5254629629,和平敦化路口,25.02444,121.549076
293,33,39,540684.5254629629,中崙高中,25.048779999999997,121.56087
294,95,39,540684.5254629629,東園國小,25.023393,121.497679
295,148,39,540684.5254629629,捷運明德站,25.110331,121.518316
296,255,39,540684.5254629629,光復南路22巷口,25.046914,121.557674
297,315,39,540684.5254629629,捷運萬隆站(1號出口),25.001447,121.53903700000001
298,250,39,540684.5254629629,忠孝東路三段217巷口,25.04184,121.539873
299,396,39,540684.5254629629,新東街51巷口,25.061501,121.563318
300,213,39,540684.5254629629,蘭雅國小,25.107782,121.52310700000001
301,331,39,540684.5254629629,民族玉門街口,25.06859,121.51973999999998
302,338,39,540684.5254629629,成德國中,25.04573,121.58793999999999
303,362,39,540684.5254629629,和平金山路口,25.02672,121.52533000000001
304,286,39,540684.5254629629,德明財經科技大學,25.086372,121.56571299999999
305,232,39,540684.5254629629,中山天母路口,25.118843,121.529738
306,310,39,540684.5254629629,國立臺北大學(臺北校區),25.057923000000002,121.542732
307,500119053,39,540684.5254629629,臺大天文數學館南側,25.021079999999998,121.53783
308,500119083,39,540684.5254629629,臺大新生教室南側,25.0196,121.53846000000001
309,9,39,540684.5254629629,松德站,25.031785,121.57448000000001
310,230,39,540684.5254629629,湖光國宅,25.075366,121.58081100000001
311,297,39,540684.5254629629,長沙公園,25.041701999999997,121.499922
312,500101032,39,540684.5254629629,臺大男一舍前,25.016370000000002,121.54535
313,500119052,39,540684.5254629629,臺大工綜館南側,25.01857,121.54059
314,121,39,540684.5254629629,龍江南京路口,25.052979999999998,121.540568
315,156,39,540684.5254629629,東湖國小,25.06853,121.61538
316,386,39,540684.5254629629,錦州吉林路口,25.06029,121.52981000000001
317,236,39,540684.5254629629,關渡自然公園,25.119292,121.46913799999999
318,500101028,39,540684.5254629629,臺大醫學院附設癌醫中心,25.01426,121.54382
319,189,39,540684.5254629629,金瑞公園(金龍路),25.087987,121.58781
320,23,39,540684.5254629629,東新國小,25.055073999999998,121.60279799999999
321,204,39,540684.5254629629,臺北市立大學(天母校區),25.113625,121.53742
322,345,39,540684.5254629629,中正運動中心,25.03806,121.51943
323,107,39,540684.5254629629,捷運小南門站(1號出口),25.036402,121.509422
324,34,39,540684.5254629629,捷運行天宮站(1號出口),25.058369,121.53293400000001
325,59,39,540684.5254629629,林森公園,25.052227,121.525805
326,252,39,540684.5254629629,大安運動中心,25.020544,121.545608
327,105,39,540684.5254629629,峨嵋停車場,25.044412,121.50540900000001
328,273,39,540684.5254629629,芝山國小,25.110437,121.535954
329,359,39,540684.5254629629,健安新城,25.05601,121.56358
330,74,39,540684.5254629629,信義連雲街口,25.033817000000003,121.530547
331,320,39,540684.5254629629,捷運南京三民站(3號出口),25.051287,121.56426200000001
332,295,39,540684.5254629629,敦親公園,25.023473000000003,121.541083
333,350,39,540684.5254629629,復興南路二段128巷口,25.02904,121.54336
334,349,39,540684.5254629629,重慶酒泉街口,25.07183,121.51364
335,392,39,540684.5254629629,南京東興路口,25.051489,121.565347
336,80,39,540684.5254629629,華江高中,25.02751,121.495869
337,282,39,540684.5254629629,富台公園,25.041935000000002,121.571999
338,123,39,540684.5254629629,天母運動公園,25.116325,121.534136
339,327,39,540684.5254629629,重慶南海路口,25.031579999999998,121.51463999999999
340,145,39,540684.5254629629,樹德公園,25.066688,121.516149
341,158,39,540684.5254629629,捷運東湖站,25.067026000000002,121.61355
342,190,39,540684.5254629629,捷運大直站(3號出口),25.079278,121.546683
343,394,39,540684.5254629629,松德虎林街口,25.038352,121.57624799999999
344,48,39,540684.5254629629,南港車站(忠孝東路),25.05247,121.608202
345,128,39,540684.5254629629,成功國宅,25.026808,121.546726
346,197,39,540684.5254629629,饒河夜市(八德路側),25.049845,121.57188500000001
347,276,39,540684.5254629629,三興公園,25.028679,121.55932
348,277,39,540684.5254629629,中山堂,25.044091,121.51025
349,154,39,540684.5254629629,中正基河路口,25.093396,121.51986699999999
350,343,39,540684.5254629629,忠孝東路六段185巷口,25.049039999999998,121.58755
351,137,39,540684.5254629629,國防大學,25.137976000000002,121.49306599999998
352,155,39,540684.5254629629,瑞光港墘路口,25.076193,121.57505
353,500119071,39,540684.5254629629,臺大計資中心南側,25.02036,121.53992
354,500119067,39,540684.5254629629,臺大社科院西側,25.020529999999997,121.54145
355,72,39,540684.5254629629,新生長安路口,25.048610999999998,121.52934599999999
356,367,39,540684.5254629629,豐年公園,25.13597,121.497019
357,127,39,540684.5254629629,東湖國中,25.073276999999997,121.61952099999999
358,226,39,540684.5254629629,向陽南港路口,25.054365,121.594228
359,361,39,540684.5254629629,振興醫院,25.1177,121.5222
360,500119049,39,540684.5254629629,臺大女九舍西南側,25.019370000000002,121.53902
361,263,39,540684.5254629629,至善臨溪路口,25.097103,121.542153
362,144,39,540684.5254629629,國立政治大學,24.988363,121.576536
363,167,39,540684.5254629629,臺北市立天文館,25.095714,121.518046
364,353,39,540684.5254629629,紀州庵,25.02088,121.52049
365,376,39,540684.5254629629,民生建國路口,25.057778,121.536915
366,86,39,540684.5254629629,民權復興路口,25.062344,121.545138
367,309,39,540684.5254629629,三軍總醫院(松山分院),25.054470000000002,121.55609799999999
368,500101027,39,540684.5254629629,臺灣科技大學後門,25.01182,121.54165
369,179,39,540684.5254629629,南港公園,25.041355,121.59073000000001
370,305,39,540684.5254629629,碧山公園,25.087413,121.592253
371,40,39,540684.5254629629,玉成公園,25.04287,121.5864
372,357,39,540684.5254629629,松友公園,25.034229999999997,121.57636000000001
373,75,39,540684.5254629629,基隆光復路口,25.0300508,121.557635
374,251,39,540684.5254629629,華齡公園,25.083023,121.520692
375,312,39,540684.5254629629,捷運信義安和站(1號出口),25.033323,121.55278700000001
376,92,39,540684.5254629629,開封西寧路口,25.046618,121.50716899999999
377,287,39,540684.5254629629,第二果菜批發市場,25.066423999999998,121.53735400000001
378,135,39,540684.5254629629,捷運石牌站(2號出口),25.114513,121.515677
379,388,39,540684.5254629629,景華街128巷口,24.995563,121.54709199999999
380,149,39,540684.5254629629,北投運動中心,25.116665,121.509621
381,389,39,540684.5254629629,福德國小,25.038324,121.58624499999999
382,68,39,540684.5254629629,國興青年路口,25.025865,121.50653600000001
383,147,39,540684.5254629629,士林運動中心,25.089175,121.52181399999999
384,225,39,540684.5254629629,臥龍樂業街口,25.0186,121.55483899999999
385,257,39,540684.5254629629,錦德公園,25.023316,121.49263700000002
386,261,39,540684.5254629629,健康新城,25.054095,121.560928
387,344,39,540684.5254629629,捷運忠孝復興站(5號出口),25.04264,121.54401000000001
388,76,39,540684.5254629629,新生長春路口,25.056387,121.52752199999999
389,103,39,540684.5254629629,萬華車站,25.033639,121.503028
390,500119048,39,540684.5254629629,臺大大一女舍北側,25.01547,121.53436
391,176,39,540684.5254629629,興安華城,25.055997,121.542318
392,163,39,540684.5254629629,捷運麟光站,25.018097,121.559279
393,369,39,540684.5254629629,世新大學,24.98862,121.54361000000002
394,303,39,540684.5254629629,安泰街83巷,25.076691,121.617085
395,39,39,540684.5254629629,南港世貿公園,25.058000000000003,121.61421999999999
396,346,39,540684.5254629629,陽明高中,25.09157,121.51669
397,217,39,540684.5254629629,臺北花市,25.062645,121.57426699999999
398,29,39,540684.5254629629,金山愛國路口,25.03164,121.52655
399,294,39,540684.5254629629,朱崙商場,25.047617000000002,121.54043100000001
400,52,39,540684.5254629629,建國長春路口,25.054761,121.536925
401,231,39,540684.5254629629,內政部營建署,25.047805,121.545022
402,56,39,540684.5254629629,仁愛林森路口,25.038954,121.52233400000001
403,244,39,540684.5254629629,復興市民路口,25.045907999999997,121.54373600000001
404,187,39,540684.5254629629,仁愛延吉街口,25.037465,121.555769
405,259,39,540684.5254629629,南京遼寧街口,25.051761,121.54216799999999
406,395,39,540684.5254629629,安強公園,25.036844,121.57541299999998
407,85,39,540684.5254629629,信義敦化路口,25.033362,121.54911000000001
408,311,39,540684.5254629629,捷運忠孝新生站(2號出口),25.042392,121.532229
409,172,39,540684.5254629629,捷運南京三民站(1號出口),25.051562,121.562891
410,500101001,39,540684.5254629629,捷運科技大樓站,25.02605,121.5436
411,183,39,540684.5254629629,圓環站,25.05379,121.514179
412,60,39,540684.5254629629,中山行政中心,25.064317000000003,121.53348700000001
413,218,39,540684.5254629629,松山高中,25.043298999999998,121.564108
414,280,39,540684.5254629629,士林新天地,25.089033999999998,121.51732
415,401,39,540684.5254629629,南京新生路口,25.051944,121.52766100000001
416,31,39,540684.5254629629,辛亥新生路口,25.022413,121.53456000000001
417,114,39,540684.5254629629,蘭雅公園,25.109907999999997,121.53038600000001
418,182,39,540684.5254629629,捷運古亭站(2號出口),25.0253,121.523537
419,79,39,540684.5254629629,捷運民權西路站(3號出口),25.061285,121.520205
420,104,39,540684.5254629629,台北花木批發市場,25.004023,121.54073999999999
421,42,39,540684.5254629629,捷運後山埤站(1號出口),25.04431,121.58174
422,304,39,540684.5254629629,金華公園,25.029902,121.53123500000001
423,63,39,540684.5254629629,仁愛醫院,25.037569,121.54563200000001
424,118,39,540684.5254629629,大業大同街口,25.136929000000002,121.499152
425,169,39,540684.5254629629,植物園,25.030015,121.509813
426,403,39,540684.5254629629,捷運內湖站(1號出口),25.083868,121.593929
427,404,39,540684.5254629629,民族延平路口,25.068653,121.51056899999999
428,32,39,540684.5254629629,捷運六張犁站,25.023884,121.55316100000002
429,57,39,540684.5254629629,新生和平路口,25.026217000000003,121.53518999999999
430,307,39,540684.5254629629,仁愛安和路口,25.037570000000002,121.552076
431,91,39,540684.5254629629,市立美術館,25.070629,121.52326799999999
432,100,39,540684.5254629629,金山市民路口,25.045753,121.530697
433,242,39,540684.5254629629,關渡宮,25.117472,121.46316100000001
434,220,39,540684.5254629629,大稻埕公園,25.059162,121.510512
435,229,39,540684.5254629629,市民太原路口,25.049394,121.51461100000002
436,140,39,540684.5254629629,捷運大橋頭站(2號出口),25.063404000000002,121.51290900000001
437,500119050,39,540684.5254629629,臺大小福樓東側,25.01846,121.5376
438,162,39,540684.5254629629,捷運中山國小站(4號出口),25.062924,121.52772
439,288,39,540684.5254629629,濟南紹興路口,25.041928,121.52459099999999
440,500119075,39,540684.5254629629,臺大第一活動中心西南側,25.01761,121.53995
441,371,39,540684.5254629629,南門國中,25.035320000000002,121.50833999999999
442,16,39,540684.5254629629,松山家商,25.036084,121.57913500000001
443,65,39,540684.5254629629,青年公園3號出口,25.022725,121.50270800000001
444,84,39,540684.5254629629,復華花園新城,25.029705,121.502899
445,10,39,540684.5254629629,台北市災害應變中心,25.02866111,121.56611670000001
446,301,39,540684.5254629629,林森長春路口,25.055062,121.525383
447,399,39,540684.5254629629,和平龍泉街口,25.026404,121.52946000000001
448,308,39,540684.5254629629,西松高中,25.055672,121.567127
449,25,39,540684.5254629629,永吉松信路口,25.04543,121.57205
450,387,39,540684.5254629629,吳興街260巷,25.0261,121.56316000000001
451,62,39,540684.5254629629,南昌公園,25.026826999999997,121.52025800000001
452,71,39,540684.5254629629,捷運信義安和站(4號出口),25.032985,121.554204
453,108,39,540684.5254629629,臺北孔廟,25.073306,121.51584299999999
454,270,39,540684.5254629629,雨農國小,25.105429,121.52921699999999
455,54,39,540684.5254629629,臺北市立圖書館(總館),25.028798000000002,121.538073
456,138,39,540684.5254629629,捷運永春站(2號出口),25.040557999999997,121.575372
457,81,39,540684.5254629629,捷運台電大樓站(2號出口),25.020547,121.528552
458,332,39,540684.5254629629,捷運中山站(2號出口),25.05225,121.52193
459,13,39,540684.5254629629,福德公園,25.03809,121.58367
460,241,39,540684.5254629629,林口公園,25.038943,121.579146
461,35,39,540684.5254629629,捷運行天宮站(3號出口),25.059978,121.533302
462,66,39,540684.5254629629,師範大學公館校區,25.007528,121.53718799999999
463,112,39,540684.5254629629,捷運新北投站,25.137456,121.503124
464,11,39,540684.5254629629,三張犁,25.034937,121.55762
465,14,39,540684.5254629629,榮星花園,25.064239999999998,121.54037
466,181,39,540684.5254629629,建國和平路口,25.02585,121.537383
467,22,39,540684.5254629629,松山車站,25.048824,121.57845
468,133,39,540684.5254629629,蘭興公園,25.111839,121.525888
469,223,39,540684.5254629629,清江國小,25.1274,121.507267
470,249,39,540684.5254629629,中華桂林路口,25.037706,121.506624
471,110,39,540684.5254629629,文湖國小,25.086376,121.56088799999999
472,20,39,540684.5254629629,捷運科技大樓站,25.025896,121.54329299999999
473,314,39,540684.5254629629,敦化長春路口,25.053614000000003,121.54871999999999
474,26,39,540684.5254629629,捷運昆陽站(1號出口),25.050142,121.592375
475,275,39,540684.5254629629,西本願寺廣場,25.040988,121.50768799999999
476,285,39,540684.5254629629,螢橋國小,25.025966,121.51377
477,219,40,551669.7430555555,大理高中,25.031147,121.49073999999999
478,339,40,551669.7430555555,重慶國中,25.07581,121.51816000000001
479,186,41,563746.7430555555,臺北市立大學,25.035414000000003,121.514218
480,195,41,563746.7430555555,信義杭州路口(中華電信總公司),25.035851,121.523987
481,7,42,574485.2430555555,信義廣場(台北101),25.03303889,121.56561940000002
482,245,42,574485.2430555555,捷運中山國中站,25.060632000000002,121.544028
483,38,42,574485.2430555555,臺灣師範大學(圖書館),25.026603,121.52944
484,17,42,574485.2430555555,民生光復路口,25.05862,121.55514
485,126,42,574485.2430555555,敦化基隆路口,25.022073000000002,121.548336
486,235,42,574485.2430555555,市民東興路口,25.048460000000002,121.565928
487,131,42,574485.2430555555,洲子二號公園,25.079322,121.568688
488,266,42,574485.2430555555,洲子一號公園,25.080257999999997,121.564806
489,64,42,574485.2430555555,國家圖書館,25.037773,121.51702900000001
490,150,42,574485.2430555555,松德公園,25.036568,121.57343
491,334,42,574485.2430555555,敦化南路二段103巷口,25.028973,121.549024
492,238,42,574485.2430555555,瑞湖陽光街口,25.073119000000002,121.575965
493,3,43,585358.9097222221,台北市政府,25.03779722,121.56516940000002
494,21,43,585358.9097222221,民生敦化路口,25.057985000000002,121.54898200000001
495,82,43,585358.9097222221,捷運西門站(3號出口),25.041778,121.508693
496,111,43,585358.9097222221,捷運忠孝復興站(2號出口),25.040184,121.543497
497,174,43,585358.9097222221,捷運小巨蛋站(5號出口),25.051702,121.55305700000001
498,55,44,597084.0097222221,臺北田徑場,25.049505,121.54940800000001
499,120,44,597084.0097222221,捷運龍山寺站(1號出口),25.035479000000002,121.50026000000001
500,221,45,609261.5097222221,泰和公園,25.019276,121.57106999999999
501,210,46,624842.5097222221,樂群二敬業四路口,25.079766,121.55813500000001
502,46,47,638169.5097222221,南港國小,25.056504,121.61138899999999
