index,station_no,class,Diff,name,lat,lng
0,1,0,0.0,捷運市政府站(3號出口),25.04085789,121.5679044
1,61,1,29268.0,台灣科技大學,25.0131,121.539723
2,36,2,50919.0,臺大資訊大樓,25.02101,121.54153000000001
3,500101022,3,74497.0,捷運公館站(2號出口),25.01491,121.53438
4,134,4,92522.0,捷運芝山站(2號出口),25.103360000000002,121.52262900000001
5,97,5,108865.0,捷運劍潭站(2號出口),25.082825,121.524721
6,132,6,125658.0,羅斯福新生南路口,25.01603085,121.5331757
7,6,7,145955.0,臺北南山廣場,25.034047,121.565973
8,5,8,161916.0,興雅國中,25.03656389,121.56866389999999
9,45,9,175803.0,捷運公館站(2號出口),25.01476,121.53453799999998
10,291,10,189531.0,捷運松山站(3號出口),25.049616,121.577459
11,78,11,202910.0,捷運圓山站(2號出口),25.071824,121.519287
12,94,12,215348.0,捷運景美站,24.993254,121.541059
13,202,13,226787.0,捷運關渡站,25.124646,121.46733600000002
14,49,14,243579.0,龍門廣場,25.040901,121.548252
15,175,15,254295.0,捷運南京復興站(5號出口),25.051617999999998,121.544847
16,12,16,266922.0,臺北醫學大學,25.026679,121.561747
17,117,17,281198.0,捷運北投站,25.132581,121.498618
18,93,18,293052.0,吳興公車總站,25.023877,121.56983600000001
19,152,19,305450.0,百齡國小,25.08521,121.519175
20,313,20,318855.0,光華商場,25.04515,121.532738
21,215,21,331321.0,捷運北門站(3號出口),25.04993,121.51036699999999
22,293,22,342152.0,自來水園區,25.013284,121.53003700000001
23,139,23,352805.0,永樂市場,25.054501000000002,121.510549
24,119,24,365519.0,捷運劍南路站(2號出口),25.08418,121.555116
25,27,25,377097.0,捷運南港展覽館站(5號出口),25.05469,121.61668999999999
26,289,25,377097.0,牯嶺公園,25.023377,121.51883500000001
27,364,26,387987.0,嘉興公園,25.02109,121.55219
28,67,27,400178.0,捷運臺大醫院(4號出口),25.042973,121.516428
29,115,28,410399.0,臺北轉運站,25.048222,121.520526
30,164,29,421818.0,捷運奇岩站,25.126286,121.500801
31,122,30,432928.0,捷運港墘站(2號出口),25.079666,121.57583999999999
32,37,31,443954.5,捷運東門站(4號出口),25.0337,121.52898799999998
33,306,31,443954.5,捷運古亭站(6號出口),25.027781,121.52198
34,88,31,443954.5,捷運象山站,25.032922,121.57087
35,279,31,443954.5,南港車站(興華路),25.053432,121.60633100000001
36,2,32,454827.5,捷運國父紀念館站(2號出口),25.041254000000002,121.55742
37,173,33,465552.5,捷運松江南京站(7號出口),25.052181,121.53321100000001
38,146,34,477921.5,捷運士林站(2號出口),25.092546,121.526556
39,24,35,488449.5,信義建國路口,25.03293,121.53747
40,87,36,498920.5,捷運大安站,25.033078,121.543057
41,70,37,510325.5,捷運台北101/世貿站,25.032752,121.561645
42,83,38,523183.5,捷運大安森林公園站,25.033344,121.534236
43,30,39,538394.5,基隆長興路口,25.017054,121.544352
44,89,40,549472.5,和平重慶路口,25.027323000000003,121.51638500000001
45,285,41,560282.5,螢橋國小,25.025966,121.51377
46,22,42,571110.7,松山車站,25.048824,121.57845
47,133,42,571110.7,蘭興公園,25.111839,121.525888
48,223,42,571110.7,清江國小,25.1274,121.507267
49,249,42,571110.7,中華桂林路口,25.037706,121.506624
50,110,42,571110.7,文湖國小,25.086376,121.56088799999999
51,10,43,581084.8263157895,台北市災害應變中心,25.02866111,121.56611670000001
52,301,43,581084.8263157895,林森長春路口,25.055062,121.525383
53,399,43,581084.8263157895,和平龍泉街口,25.026404,121.52946000000001
54,308,43,581084.8263157895,西松高中,25.055672,121.567127
55,25,43,581084.8263157895,永吉松信路口,25.04543,121.57205
56,387,43,581084.8263157895,吳興街260巷,25.0261,121.56316000000001
57,62,43,581084.8263157895,南昌公園,25.026826999999997,121.52025800000001
58,71,43,581084.8263157895,捷運信義安和站(4號出口),25.032985,121.554204
59,108,43,581084.8263157895,臺北孔廟,25.073306,121.51584299999999
60,270,43,581084.8263157895,雨農國小,25.105429,121.52921699999999
61,54,43,581084.8263157895,臺北市立圖書館(總館),25.028798000000002,121.538073
62,138,43,581084.8263157895,捷運永春站(2號出口),25.040557999999997,121.575372
63,81,43,581084.8263157895,捷運台電大樓站(2號出口),25.020547,121.528552
64,332,43,581084.8263157895,捷運中山站(2號出口),25.05225,121.52193
65,13,43,581084.8263157895,福德公園,25.03809,121.58367
66,241,43,581084.8263157895,林口公園,25.038943,121.579146
67,35,43,581084.8263157895,捷運行天宮站(3號出口),25.059978,121.533302
68,66,43,581084.8263157895,師範大學公館校區,25.007528,121.53718799999999
69,112,43,581084.8263157895,捷運新北投站,25.137456,121.503124
70,11,44,590980.6947368421,三張犁,25.034937,121.55762
71,14,44,590980.6947368421,榮星花園,25.064239999999998,121.54037
72,181,45,600845.1947368421,建國和平路口,25.02585,121.537383
73,20,46,611162.4447368421,捷運科技大樓站,25.025896,121.54329299999999
74,314,46,611162.4447368421,敦化長春路口,25.053614000000003,121.54871999999999
75,26,46,611162.4447368421,捷運昆陽站(1號出口),25.050142,121.592375
76,275,46,611162.4447368421,西本願寺廣場,25.040988,121.50768799999999
77,16,47,621540.0280701754,松山家商,25.036084,121.57913500000001
78,65,47,621540.0280701754,青年公園3號出口,25.022725,121.50270800000001
79,84,47,621540.0280701754,復華花園新城,25.029705,121.502899
80,140,48,632465.9169590643,捷運大橋頭站(2號出口),25.063404000000002,121.51290900000001
81,500119050,48,632465.9169590643,臺大小福樓東側,25.01846,121.5376
82,162,48,632465.9169590643,捷運中山國小站(4號出口),25.062924,121.52772
83,4,49,642392.7711790132,市民廣場,25.03603611,121.562325
84,253,49,642392.7711790132,芝山抽水站,25.101423,121.52798999999999
85,113,49,642392.7711790132,仁愛逸仙路口,25.037724,121.561178
86,372,49,642392.7711790132,重慶民族路口,25.06825,121.51359
87,222,49,642392.7711790132,撫順公園,25.064107999999997,121.522065
88,340,49,642392.7711790132,南京光復路口,25.05143,121.55716000000001
89,300,49,642392.7711790132,信義基隆路口,25.033209,121.55873100000001
90,258,49,642392.7711790132,聯合醫院中興院區,25.052096,121.507979
91,248,49,642392.7711790132,喬治工商,25.027123,121.55556599999998
92,351,49,642392.7711790132,中山青島路口,25.04469,121.51953999999999
93,129,49,642392.7711790132,捷運文德站(2號出口),25.078424,121.58456000000001
94,194,49,642392.7711790132,市民林森路口,25.047957999999998,121.52438799999999
95,363,49,642392.7711790132,復興南路一段340巷口,25.036170000000002,121.5435
96,8,49,642392.7711790132,世貿三館,25.03521389,121.5636889
97,53,49,642392.7711790132,八德市場,25.044781,121.53660900000001
98,106,49,642392.7711790132,西園艋舺路口,25.032932000000002,121.497674
99,318,49,642392.7711790132,成功金龍路口,25.084135,121.59483999999999
100,326,49,642392.7711790132,基隆路一段101巷口,25.04525,121.56709
101,28,49,642392.7711790132,五常公園,25.04814,121.57467
102,333,49,642392.7711790132,復盛公園,25.047428,121.561182
103,90,49,642392.7711790132,老松國小,25.037782999999997,121.50170800000001
104,397,49,642392.7711790132,劍潭海外青年活動中心,25.079603,121.5237
105,290,49,642392.7711790132,新生公園,25.068387,121.530188
106,41,49,642392.7711790132,中研公園,25.047425,121.61370600000001
107,322,49,642392.7711790132,永盛公園(民生東路一段23巷),25.058835000000002,121.52503999999999
108,316,49,642392.7711790132,民有一號公園,25.060910999999997,121.54763
109,354,49,642392.7711790132,建國濟南路口,25.040032999999998,121.53808400000001
110,51,49,642392.7711790132,建國農安街口,25.065031,121.536775
111,391,49,642392.7711790132,景仁公園,24.9966,121.540295
112,161,49,642392.7711790132,大豐公園,25.131142999999998,121.503768
113,203,49,642392.7711790132,古亭國中,25.024487,121.51057
114,166,49,642392.7711790132,臺北市立景美女中,24.980601999999998,121.556177
115,324,49,642392.7711790132,市立圖書館葫蘆堵分館,25.08221,121.5108
116,348,49,642392.7711790132,民生立體停車場,25.058522,121.55941999999999
117,170,49,642392.7711790132,新東公園,25.059245,121.56888300000001
118,188,49,642392.7711790132,社子國小,25.090293,121.50188999999999
119,43,49,642392.7711790132,凌雲市場,25.035639,121.614154
120,243,49,642392.7711790132,社子公園,25.090201999999998,121.50621899999999
121,330,49,642392.7711790132,迪化休閒運動公園,25.07491,121.5115
122,500101003,49,642392.7711790132,國北教大實小東側門,25.02429,121.54123999999999
123,47,49,642392.7711790132,捷運忠孝新生站(4號出口),25.042275,121.53393899999999
124,99,49,642392.7711790132,捷運雙連站(2號出口),25.057866,121.520711
125,101,49,642392.7711790132,華山文創園區,25.043668,121.52848700000001
126,185,49,642392.7711790132,?公公園,25.042342,121.54605
127,240,49,642392.7711790132,南京建國路口,25.052141,121.53680200000001
128,378,49,642392.7711790132,陽光街321巷口,25.073193,121.57869099999999
129,500101002,49,642392.7711790132,復興南路二段273號前,25.02565,121.54356999999999
130,500101017,49,642392.7711790132,羅斯福路三段269巷5號前,25.01913,121.53079
131,500119062,49,642392.7711790132,臺大公館停車場西北側,25.01345,121.53798
132,500101020,49,642392.7711790132,溫州停車場,25.02093,121.5331
133,500119080,49,642392.7711790132,臺大小小福西南側,25.01539,121.53686
134,1289,49,642392.7711790132,忠山市民活動中心,25.078201999999997,121.62449299999999
135,269,49,642392.7711790132,三軍總醫院,25.070723,121.590304
136,500101018,49,642392.7711790132,溫州公園,25.01895,121.53156000000001
137,500101093,49,642392.7711790132,大安區健康服務中心,25.021469,121.544069
138,500101008,49,642392.7711790132,新生南路三段52號前,25.02112,121.53407
139,500101092,49,642392.7711790132,和平實小東北側,25.021641,121.54704
140,500119063,49,642392.7711790132,臺大第二行政大樓南側,25.016029999999997,121.53635
141,500119065,49,642392.7711790132,臺大二號館,25.01699,121.53573999999999
142,265,49,642392.7711790132,中央北路四段30巷口,25.135394,121.478
143,283,49,642392.7711790132,中央北路四段540巷口,25.127959,121.4677
144,500106002,49,642392.7711790132,汀州思源街口東南側,25.014697,121.531908
145,500101004,49,642392.7711790132,和平公園東側,25.02351,121.54281999999999
146,500119056,49,642392.7711790132,臺大農化新館西側,25.016270000000002,121.53535
147,500101006,49,642392.7711790132,復興南路二段280號前,25.02429,121.54328000000001
148,500101007,49,642392.7711790132,復興南路二段340巷口,25.02253,121.54326
149,500101015,49,642392.7711790132,大安運動中心停車場,25.020348000000002,121.546446
150,500101019,49,642392.7711790132,和平臥龍街口,25.024461,121.546705
151,500119057,49,642392.7711790132,臺大五號館西側,25.01666,121.53718
152,500119082,49,642392.7711790132,臺大四號館東北側,25.01703,121.53781000000001
153,500119073,49,642392.7711790132,臺大校史館南側,25.01751,121.53568999999999
154,196,49,642392.7711790132,新湖國小,25.068744,121.58923300000001
155,246,49,642392.7711790132,國立故宮博物院,25.098743,121.54808600000001
156,500101035,49,642392.7711790132,臺大土木研究大樓前,25.017870000000002,121.5476
157,500119059,49,642392.7711790132,臺大共同教室北側,25.01595,121.53791000000001
158,500119081,49,642392.7711790132,臺大教研館北側,25.013370000000002,121.53908999999999
159,500119064,49,642392.7711790132,臺大明達館機車停車場,25.01754,121.54398
160,500119074,49,642392.7711790132,臺大生命科學館西北側,25.01548,121.53825
161,500119089,49,642392.7711790132,臺大獸醫館南側,25.01791,121.54241999999999
162,500119008,49,642392.7711790132,臺大檔案展示館,25.01391,121.52895
163,500119072,49,642392.7711790132,臺大原分所北側,25.018810000000002,121.53868
164,500119069,49,642392.7711790132,臺大思亮館東南側,25.02074,121.53906
165,500119084,49,642392.7711790132,臺大鄭江樓北側,25.019000000000002,121.54305
166,500101037,49,642392.7711790132,臺大國青大樓宿舍前,25.02076,121.54432
167,500119007,49,642392.7711790132,臺大水源修齊會館,25.014110000000002,121.52996999999999
168,374,49,642392.7711790132,麗湖國小,25.073322,121.602225
169,402,49,642392.7711790132,下灣公園,25.065159,121.595611
170,211,49,642392.7711790132,星雲金湖街口,25.080915,121.59733899999999
171,356,49,642392.7711790132,臺北市網球中心,25.0674,121.59749
172,500101040,49,642392.7711790132,臺大綜合體育館停車場前,25.0222,121.53626000000001
173,260,49,642392.7711790132,民權瑞光路口,25.068616,121.583991
174,335,49,642392.7711790132,景文中學,24.986301,121.56785500000001
175,500101030,49,642392.7711790132,臺大永齡生醫工程館,25.0136,121.54656000000001
176,180,49,642392.7711790132,福華商場,25.06877,121.59265400000001
177,239,49,642392.7711790132,新明路262巷口,25.056641,121.583403
178,500101021,49,642392.7711790132,銘傳國小側門,25.01385,121.53549
179,500101011,49,642392.7711790132,羅斯福路三段333巷9號旁,25.017570000000003,121.53271000000001
180,500106003,49,642392.7711790132,捷運公館站(1號出口),25.014529,121.534374
181,500101012,49,642392.7711790132,辛亥路一段30號前,25.01986,121.52982
182,500101016,49,642392.7711790132,羅斯福路三段245號前,25.019270000000002,121.52989
183,207,49,642392.7711790132,福安國中,25.103242,121.487477
184,102,49,642392.7711790132,臺北市客家文化主題公園,25.020429999999998,121.525322
185,141,49,642392.7711790132,文山行政中心,24.989902,121.569984
186,500101013,49,642392.7711790132,和平復興路口西北側,25.02543,121.54332
187,247,49,642392.7711790132,木柵公園,24.987144,121.560627
188,500101091,49,642392.7711790132,國北教大側門南側,25.022864000000002,121.546622
189,325,49,642392.7711790132,南京東路六段368巷,25.05827,121.58707
190,500119006,49,642392.7711790132,臺大卓越研究大樓,25.01466,121.52917
191,366,49,642392.7711790132,碧湖公園,25.07988,121.58287
192,233,49,642392.7711790132,捷運忠義站,25.131411,121.47415500000001
193,264,49,642392.7711790132,秀山區民活動中心,25.145936,121.49300900000001
194,381,49,642392.7711790132,民權東路六段15巷,25.06853,121.578125
195,500101036,49,642392.7711790132,臺大萬才館前,25.02032,121.54496999999999
196,500119086,49,642392.7711790132,臺大圖資系館北側,25.01804,121.53928
197,500119054,49,642392.7711790132,臺大心理系館南側,25.01941,121.5404
198,500119068,49,642392.7711790132,臺大社會系館南側,25.01987,121.54175
199,500119044,49,642392.7711790132,臺大仰萃樓東南側,25.01408,121.53759
200,500119055,49,642392.7711790132,臺大樂學館東側,25.01793,121.53585
201,500119046,49,642392.7711790132,臺大管理學院二館北側,25.01355,121.53673
202,500119060,49,642392.7711790132,臺大共同教室東南側,25.01566,121.53786000000001
203,500101034,49,642392.7711790132,臺大動物醫院前,25.01576,121.54291
204,500119047,49,642392.7711790132,臺大土木系館,25.01761,121.53844
205,500119078,49,642392.7711790132,臺大森林館北側,25.017039999999998,121.53888
206,500119076,49,642392.7711790132,臺大博理館西側,25.01922,121.54195
207,500101014,49,642392.7711790132,羅斯福路三段311號前,25.01717,121.53201999999999
208,500106004,49,642392.7711790132,捷運公館站(4號出口),25.015069,121.533828
209,500101038,49,642392.7711790132,臺大社科院圖書館前,25.02101,121.54283999999998
210,500101039,49,642392.7711790132,臺大法人語言訓練中心前,25.02104,121.54081000000001
211,500101005,49,642392.7711790132,辛亥復興路口西北側,25.02153,121.54298999999999
212,500119070,49,642392.7711790132,臺大椰林小舖,25.015610000000002,121.53583
213,500101029,49,642392.7711790132,臺大環研大樓,25.01234,121.54503000000001
214,228,49,642392.7711790132,捷運萬芳社區站,24.998811,121.56788999999999
215,393,49,642392.7711790132,內溝溪生態展示館,25.087217000000003,121.623062
216,184,49,642392.7711790132,劍潭社區,25.084759,121.537892
217,390,49,642392.7711790132,稻香重三路口,25.139937,121.489594
218,500101041,49,642392.7711790132,辛亥新生路口東南側,25.02218,121.53473999999999
219,500119045,49,642392.7711790132,臺大農業陳列館北側,25.01839,121.53403999999999
220,358,49,642392.7711790132,新明成功路口,25.060579999999998,121.5911
221,256,49,642392.7711790132,中山中正路口,25.096507,121.527526
222,342,49,642392.7711790132,文林建民路口,25.107789999999998,121.51468
223,500101025,49,642392.7711790132,臺灣科技大學側門,25.01295,121.53973
224,500101042,49,642392.7711790132,基隆長興路口東側,25.01727,121.54471000000001
225,355,49,642392.7711790132,福山公園,25.04478,121.61758999999999
226,500101094,49,642392.7711790132,辛亥泰順街口,25.021929999999998,121.53165
227,383,49,642392.7711790132,一壽橋,24.978479999999998,121.55545
228,384,49,642392.7711790132,松基公園,25.05491,121.5448
229,500101024,49,642392.7711790132,臺灣科技大學正門,25.01451,121.54142
230,136,49,642392.7711790132,國立臺北護理健康大學,25.117457,121.51668000000001
231,500101031,49,642392.7711790132,臺大男七舍前,25.01537,121.54698
232,500119058,49,642392.7711790132,臺大舊體育館西側,25.0198,121.53583
233,500119051,49,642392.7711790132,臺大立體機車停車場,25.01616,121.54251000000001
234,209,49,642392.7711790132,捷運復興崗站,25.137837,121.486071
235,323,49,642392.7711790132,新興公園,25.061567999999998,121.52439199999999
236,365,49,642392.7711790132,陽明大學,25.119120000000002,121.51223
237,500101009,49,642392.7711790132,新生南路三段66號前,25.01976,121.53383999999998
238,500101023,49,642392.7711790132,第二學生活動中心,25.012439999999998,121.53661000000001
239,380,49,642392.7711790132,塔悠疏散門,25.064713,121.567899
240,500106001,49,642392.7711790132,臺北自來水事業處,25.013741,121.53068
241,337,49,642392.7711790132,彩虹橋,25.05301,121.57592
242,234,49,642392.7711790132,永欣綠地,25.124162,121.526071
243,278,49,642392.7711790132,明美公園,25.062557,121.58606499999999
244,157,49,642392.7711790132,麗山國小,25.082703,121.571467
245,212,49,642392.7711790132,北安大直街口,25.084223,121.549452
246,500101010,49,642392.7711790132,新生南路三段82號前,25.01894,121.53361000000001
247,500119079,49,642392.7711790132,臺大一號館,25.01698,121.53455
248,50,49,642392.7711790132,民權運動公園,25.062002,121.56018600000002
249,500119009,49,642392.7711790132,臺大水源舍區B棟,25.01525,121.53008999999999
250,500119005,49,642392.7711790132,臺大水源舍區A棟,25.01493,121.53043999999998
251,151,49,642392.7711790132,考試院,24.987507,121.54982700000001
252,284,49,642392.7711790132,華聲公園,25.096166,121.52209599999999
253,96,49,642392.7711790132,三民公園,25.061567,121.566558
254,267,49,642392.7711790132,八德中坡路口,25.050620000000002,121.58019399999999
255,319,49,642392.7711790132,民族林森路口,25.068507,121.525322
256,262,49,642392.7711790132,永安藝文館-表演36房,24.984144,121.56906399999998
257,377,49,642392.7711790132,南港路二段178巷口,25.053675,121.59969299999999
258,124,49,642392.7711790132,振華公園,25.115863,121.51816299999999
259,216,49,642392.7711790132,培英公園,25.082553,121.544601
260,274,49,642392.7711790132,扶輪親恩公園,25.066997,121.57983300000001
261,368,49,642392.7711790132,臺灣戲曲中心,25.102079999999997,121.51978999999999
262,500119077,49,642392.7711790132,臺大博雅館西側,25.0189,121.536
263,44,49,642392.7711790132,捷運南港軟體園區站(2號出口),25.05973,121.61618700000001
264,201,49,642392.7711790132,東陽公園,25.057164,121.597924
265,336,49,642392.7711790132,承德路三段8巷口,25.06382,121.51815
266,171,49,642392.7711790132,文山運動中心,24.996842,121.559651
267,214,49,642392.7711790132,基河一期國宅,25.055935,121.578645
268,192,49,642392.7711790132,捷運葫洲站(1號出口),25.072485,121.607955
269,398,49,642392.7711790132,聯合醫院陽明院區,25.104546,121.531949
270,142,49,642392.7711790132,捷運木柵站,24.997996,121.57444
271,268,49,642392.7711790132,南港高工,25.056655,121.607055
272,143,49,642392.7711790132,捷運動物園站(2號出口),24.997659,121.57875200000001
273,206,49,642392.7711790132,捷運辛亥站,25.005385999999998,121.55716000000001
274,73,49,642392.7711790132,酒泉延平路口,25.072228,121.510195
275,500119066,49,642392.7711790132,臺大凝態館南側,25.02157,121.53633
276,227,49,642392.7711790132,麗山高中,25.084244,121.57668000000001
277,500119087,49,642392.7711790132,臺大總圖書館西南側,25.0169,121.54031
278,500101033,49,642392.7711790132,臺大男六舍前,25.01664,121.5452
279,191,49,642392.7711790132,捷運大湖公園站(2號出口),25.083873,121.60206000000001
280,116,49,642392.7711790132,福林公園,25.096122,121.53021499999998
281,329,49,642392.7711790132,樂群二明水路口,25.079829999999998,121.55236000000001
282,165,49,642392.7711790132,捷運唭哩岸站(2號出口),25.120788,121.505693
283,299,49,642392.7711790132,萬華國中,25.029264,121.499358
284,281,49,642392.7711790132,松江公園,25.050245,121.532725
285,382,49,642392.7711790132,聯合醫院和平院區,25.03516,121.50639
286,328,49,642392.7711790132,一江公園,25.053160000000002,121.53146000000001
287,271,49,642392.7711790132,伊通長安路口,25.048334,121.53469299999999
288,347,49,642392.7711790132,博愛寶慶路口,25.041339999999998,121.51135
289,254,49,642392.7711790132,立功立德路口,25.125377,121.47148200000001
290,375,49,642392.7711790132,銘傳大學,25.087714000000002,121.526766
291,302,49,642392.7711790132,敦北公園,25.060745999999998,121.550711
292,500119085,49,642392.7711790132,臺大電機二館東南側,25.01857,121.54247
293,500119090,49,642392.7711790132,臺大新體育館東南側,25.02112,121.53591000000002
294,500119061,49,642392.7711790132,臺大鹿鳴堂東側,25.01511,121.53786000000001
295,500119088,49,642392.7711790132,臺大黑森林西側,25.01995,121.54347
296,178,49,642392.7711790132,延平國宅,25.078908,121.510306
297,193,49,642392.7711790132,舊莊區民活動中心,25.041276999999997,121.61935
298,317,49,642392.7711790132,雙園國中,25.026823,121.491675
299,69,49,642392.7711790132,興豐公園,24.999837,121.54777800000001
300,109,49,642392.7711790132,林安泰古厝,25.071606,121.530805
301,77,49,642392.7711790132,民生活動中心,25.059147,121.56296999999999
302,385,49,642392.7711790132,和興路26巷口,24.9856,121.54531000000001
303,208,49,642392.7711790132,龍山國小,25.035555,121.495342
304,224,49,642392.7711790132,社正公園,25.088243,121.510535
305,125,49,642392.7711790132,華西公園,25.038609,121.49849499999999
306,237,49,642392.7711790132,文山第二行政中心,25.001148999999998,121.551418
307,98,49,642392.7711790132,羅斯福景隆街口,24.999378,121.54019699999999
308,205,49,642392.7711790132,木柵光輝路口,24.988241,121.55561000000002
309,168,49,642392.7711790132,河堤國小,25.022879999999997,121.522855
310,272,49,642392.7711790132,忠順區民活動中心,24.984707,121.563125
311,296,49,642392.7711790132,萬和二號公園,25.001545,121.536446
312,370,49,642392.7711790132,新和國小,25.02656,121.50242
313,500101026,49,642392.7711790132,公館公園,25.01137,121.54061999999999
314,500119043,49,642392.7711790132,臺大男八舍東側,25.01729,121.54531000000001
315,58,49,642392.7711790132,捷運善導寺站(1號出口),25.045267000000003,121.5222
316,341,49,642392.7711790132,捷運芝山站(1號出口),25.100939999999998,121.52243
317,177,49,642392.7711790132,葫蘆國小,25.082538,121.50749499999999
318,18,49,642392.7711790132,臺北市藝文推廣處,25.049408,121.55261000000002
319,360,49,642392.7711790132,民權建國路口,25.062520000000003,121.53753999999999
320,292,49,642392.7711790132,合心廣場,25.046360999999997,121.582848
321,352,49,642392.7711790132,民權迪化街口,25.06318,121.50943999999998
322,159,49,642392.7711790132,捷運西湖站(1號出口),25.082866,121.566695
323,321,49,642392.7711790132,莒光大埔街口,25.031334,121.50508500000001
324,379,49,642392.7711790132,春光公園,25.042619000000002,121.58076200000001
325,298,49,642392.7711790132,太原五原路口,25.056458,121.516976
326,373,49,642392.7711790132,中崙福成宮,25.04525,121.54663500000001
327,19,49,642392.7711790132,象山公園,25.02863,121.56981
328,130,49,642392.7711790132,羅斯福寧波東街口,25.031445,121.519411
329,153,49,642392.7711790132,蔣渭水紀念公園,25.059885,121.516299
330,400,49,642392.7711790132,和平敦化路口,25.02444,121.549076
331,33,49,642392.7711790132,中崙高中,25.048779999999997,121.56087
332,95,49,642392.7711790132,東園國小,25.023393,121.497679
333,148,49,642392.7711790132,捷運明德站,25.110331,121.518316
334,255,49,642392.7711790132,光復南路22巷口,25.046914,121.557674
335,315,49,642392.7711790132,捷運萬隆站(1號出口),25.001447,121.53903700000001
336,250,49,642392.7711790132,忠孝東路三段217巷口,25.04184,121.539873
337,396,49,642392.7711790132,新東街51巷口,25.061501,121.563318
338,213,49,642392.7711790132,蘭雅國小,25.107782,121.52310700000001
339,331,49,642392.7711790132,民族玉門街口,25.06859,121.51973999999998
340,338,49,642392.7711790132,成德國中,25.04573,121.58793999999999
341,362,49,642392.7711790132,和平金山路口,25.02672,121.52533000000001
342,286,49,642392.7711790132,德明財經科技大學,25.086372,121.56571299999999
343,232,49,642392.7711790132,中山天母路口,25.118843,121.529738
344,310,49,642392.7711790132,國立臺北大學(臺北校區),25.057923000000002,121.542732
345,500119053,49,642392.7711790132,臺大天文數學館南側,25.021079999999998,121.53783
346,500119083,49,642392.7711790132,臺大新生教室南側,25.0196,121.53846000000001
347,9,49,642392.7711790132,松德站,25.031785,121.57448000000001
348,230,49,642392.7711790132,湖光國宅,25.075366,121.58081100000001
349,297,49,642392.7711790132,長沙公園,25.041701999999997,121.499922
350,500101032,49,642392.7711790132,臺大男一舍前,25.016370000000002,121.54535
351,500119052,49,642392.7711790132,臺大工綜館南側,25.01857,121.54059
352,121,49,642392.7711790132,龍江南京路口,25.052979999999998,121.540568
353,156,49,642392.7711790132,東湖國小,25.06853,121.61538
354,386,49,642392.7711790132,錦州吉林路口,25.06029,121.52981000000001
355,236,49,642392.7711790132,關渡自然公園,25.119292,121.46913799999999
356,500101028,49,642392.7711790132,臺大醫學院附設癌醫中心,25.01426,121.54382
357,189,49,642392.7711790132,金瑞公園(金龍路),25.087987,121.58781
358,23,49,642392.7711790132,東新國小,25.055073999999998,121.60279799999999
359,204,49,642392.7711790132,臺北市立大學(天母校區),25.113625,121.53742
360,345,49,642392.7711790132,中正運動中心,25.03806,121.51943
361,107,49,642392.7711790132,捷運小南門站(1號出口),25.036402,121.509422
362,34,49,642392.7711790132,捷運行天宮站(1號出口),25.058369,121.53293400000001
363,59,49,642392.7711790132,林森公園,25.052227,121.525805
364,252,49,642392.7711790132,大安運動中心,25.020544,121.545608
365,105,49,642392.7711790132,峨嵋停車場,25.044412,121.50540900000001
366,273,49,642392.7711790132,芝山國小,25.110437,121.535954
367,359,49,642392.7711790132,健安新城,25.05601,121.56358
368,74,49,642392.7711790132,信義連雲街口,25.033817000000003,121.530547
369,320,49,642392.7711790132,捷運南京三民站(3號出口),25.051287,121.56426200000001
370,295,49,642392.7711790132,敦親公園,25.023473000000003,121.541083
371,350,49,642392.7711790132,復興南路二段128巷口,25.02904,121.54336
372,349,49,642392.7711790132,重慶酒泉街口,25.07183,121.51364
373,392,49,642392.7711790132,南京東興路口,25.051489,121.565347
374,80,49,642392.7711790132,華江高中,25.02751,121.495869
375,282,49,642392.7711790132,富台公園,25.041935000000002,121.571999
376,123,49,642392.7711790132,天母運動公園,25.116325,121.534136
377,327,49,642392.7711790132,重慶南海路口,25.031579999999998,121.51463999999999
378,145,49,642392.7711790132,樹德公園,25.066688,121.516149
379,158,49,642392.7711790132,捷運東湖站,25.067026000000002,121.61355
380,190,49,642392.7711790132,捷運大直站(3號出口),25.079278,121.546683
381,394,49,642392.7711790132,松德虎林街口,25.038352,121.57624799999999
382,48,49,642392.7711790132,南港車站(忠孝東路),25.05247,121.608202
383,128,49,642392.7711790132,成功國宅,25.026808,121.546726
384,197,49,642392.7711790132,饒河夜市(八德路側),25.049845,121.57188500000001
385,276,49,642392.7711790132,三興公園,25.028679,121.55932
386,277,49,642392.7711790132,中山堂,25.044091,121.51025
387,154,49,642392.7711790132,中正基河路口,25.093396,121.51986699999999
388,343,49,642392.7711790132,忠孝東路六段185巷口,25.049039999999998,121.58755
389,137,49,642392.7711790132,國防大學,25.137976000000002,121.49306599999998
390,155,49,642392.7711790132,瑞光港墘路口,25.076193,121.57505
391,500119071,49,642392.7711790132,臺大計資中心南側,25.02036,121.53992
392,500119067,49,642392.7711790132,臺大社科院西側,25.020529999999997,121.54145
393,72,49,642392.7711790132,新生長安路口,25.048610999999998,121.52934599999999
394,367,49,642392.7711790132,豐年公園,25.13597,121.497019
395,127,49,642392.7711790132,東湖國中,25.073276999999997,121.61952099999999
396,226,49,642392.7711790132,向陽南港路口,25.054365,121.594228
397,361,49,642392.7711790132,振興醫院,25.1177,121.5222
398,500119049,49,642392.7711790132,臺大女九舍西南側,25.019370000000002,121.53902
399,263,49,642392.7711790132,至善臨溪路口,25.097103,121.542153
400,144,49,642392.7711790132,國立政治大學,24.988363,121.576536
401,167,49,642392.7711790132,臺北市立天文館,25.095714,121.518046
402,353,49,642392.7711790132,紀州庵,25.02088,121.52049
403,376,49,642392.7711790132,民生建國路口,25.057778,121.536915
404,86,49,642392.7711790132,民權復興路口,25.062344,121.545138
405,309,49,642392.7711790132,三軍總醫院(松山分院),25.054470000000002,121.55609799999999
406,500101027,49,642392.7711790132,臺灣科技大學後門,25.01182,121.54165
407,179,49,642392.7711790132,南港公園,25.041355,121.59073000000001
408,305,49,642392.7711790132,碧山公園,25.087413,121.592253
409,40,49,642392.7711790132,玉成公園,25.04287,121.5864
410,357,49,642392.7711790132,松友公園,25.034229999999997,121.57636000000001
411,75,49,642392.7711790132,基隆光復路口,25.0300508,121.557635
412,251,49,642392.7711790132,華齡公園,25.083023,121.520692
413,312,49,642392.7711790132,捷運信義安和站(1號出口),25.033323,121.55278700000001
414,92,49,642392.7711790132,開封西寧路口,25.046618,121.50716899999999
415,287,49,642392.7711790132,第二果菜批發市場,25.066423999999998,121.53735400000001
416,135,49,642392.7711790132,捷運石牌站(2號出口),25.114513,121.515677
417,388,49,642392.7711790132,景華街128巷口,24.995563,121.54709199999999
418,149,49,642392.7711790132,北投運動中心,25.116665,121.509621
419,389,49,642392.7711790132,福德國小,25.038324,121.58624499999999
420,68,49,642392.7711790132,國興青年路口,25.025865,121.50653600000001
421,147,49,642392.7711790132,士林運動中心,25.089175,121.52181399999999
422,225,49,642392.7711790132,臥龍樂業街口,25.0186,121.55483899999999
423,257,49,642392.7711790132,錦德公園,25.023316,121.49263700000002
424,261,49,642392.7711790132,健康新城,25.054095,121.560928
425,344,49,642392.7711790132,捷運忠孝復興站(5號出口),25.04264,121.54401000000001
426,76,49,642392.7711790132,新生長春路口,25.056387,121.52752199999999
427,103,49,642392.7711790132,萬華車站,25.033639,121.503028
428,500119048,49,642392.7711790132,臺大大一女舍北側,25.01547,121.53436
429,176,49,642392.7711790132,興安華城,25.055997,121.542318
430,163,49,642392.7711790132,捷運麟光站,25.018097,121.559279
431,369,49,642392.7711790132,世新大學,24.98862,121.54361000000002
432,303,49,642392.7711790132,安泰街83巷,25.076691,121.617085
433,39,49,642392.7711790132,南港世貿公園,25.058000000000003,121.61421999999999
434,346,49,642392.7711790132,陽明高中,25.09157,121.51669
435,217,49,642392.7711790132,臺北花市,25.062645,121.57426699999999
436,29,49,642392.7711790132,金山愛國路口,25.03164,121.52655
437,294,49,642392.7711790132,朱崙商場,25.047617000000002,121.54043100000001
438,52,49,642392.7711790132,建國長春路口,25.054761,121.536925
439,231,49,642392.7711790132,內政部營建署,25.047805,121.545022
440,56,49,642392.7711790132,仁愛林森路口,25.038954,121.52233400000001
441,244,49,642392.7711790132,復興市民路口,25.045907999999997,121.54373600000001
442,187,49,642392.7711790132,仁愛延吉街口,25.037465,121.555769
443,259,49,642392.7711790132,南京遼寧街口,25.051761,121.54216799999999
444,395,49,642392.7711790132,安強公園,25.036844,121.57541299999998
445,85,49,642392.7711790132,信義敦化路口,25.033362,121.54911000000001
446,311,49,642392.7711790132,捷運忠孝新生站(2號出口),25.042392,121.532229
447,172,49,642392.7711790132,捷運南京三民站(1號出口),25.051562,121.562891
448,500101001,49,642392.7711790132,捷運科技大樓站,25.02605,121.5436
449,183,49,642392.7711790132,圓環站,25.05379,121.514179
450,60,49,642392.7711790132,中山行政中心,25.064317000000003,121.53348700000001
451,218,49,642392.7711790132,松山高中,25.043298999999998,121.564108
452,280,49,642392.7711790132,士林新天地,25.089033999999998,121.51732
453,401,49,642392.7711790132,南京新生路口,25.051944,121.52766100000001
454,31,49,642392.7711790132,辛亥新生路口,25.022413,121.53456000000001
455,114,49,642392.7711790132,蘭雅公園,25.109907999999997,121.53038600000001
456,182,49,642392.7711790132,捷運古亭站(2號出口),25.0253,121.523537
457,79,49,642392.7711790132,捷運民權西路站(3號出口),25.061285,121.520205
458,104,49,642392.7711790132,台北花木批發市場,25.004023,121.54073999999999
459,42,49,642392.7711790132,捷運後山埤站(1號出口),25.04431,121.58174
460,304,49,642392.7711790132,金華公園,25.029902,121.53123500000001
461,63,49,642392.7711790132,仁愛醫院,25.037569,121.54563200000001
462,118,49,642392.7711790132,大業大同街口,25.136929000000002,121.499152
463,169,49,642392.7711790132,植物園,25.030015,121.509813
464,403,49,642392.7711790132,捷運內湖站(1號出口),25.083868,121.593929
465,404,49,642392.7711790132,民族延平路口,25.068653,121.51056899999999
466,32,49,642392.7711790132,捷運六張犁站,25.023884,121.55316100000002
467,57,49,642392.7711790132,新生和平路口,25.026217000000003,121.53518999999999
468,307,49,642392.7711790132,仁愛安和路口,25.037570000000002,121.552076
469,91,49,642392.7711790132,市立美術館,25.070629,121.52326799999999
470,100,49,642392.7711790132,金山市民路口,25.045753,121.530697
471,242,49,642392.7711790132,關渡宮,25.117472,121.46316100000001
472,220,49,642392.7711790132,大稻埕公園,25.059162,121.510512
473,229,49,642392.7711790132,市民太原路口,25.049394,121.51461100000002
474,288,50,652507.9800451683,濟南紹興路口,25.041928,121.52459099999999
475,500119075,50,652507.9800451683,臺大第一活動中心西南側,25.01761,121.53995
476,371,50,652507.9800451683,南門國中,25.035320000000002,121.50833999999999
477,219,51,663559.8133785017,大理高中,25.031147,121.49073999999999
478,339,51,663559.8133785017,重慶國中,25.07581,121.51816000000001
479,186,52,675636.8133785017,臺北市立大學,25.035414000000003,121.514218
480,195,52,675636.8133785017,信義杭州路口(中華電信總公司),25.035851,121.523987
481,17,53,686879.0133785015,民生光復路口,25.05862,121.55514
482,126,53,686879.0133785015,敦化基隆路口,25.022073000000002,121.548336
483,235,53,686879.0133785015,市民東興路口,25.048460000000002,121.565928
484,131,53,686879.0133785015,洲子二號公園,25.079322,121.568688
485,266,53,686879.0133785015,洲子一號公園,25.080257999999997,121.564806
486,64,54,696606.0133785015,國家圖書館,25.037773,121.51702900000001
487,150,54,696606.0133785015,松德公園,25.036568,121.57343
488,334,54,696606.0133785015,敦化南路二段103巷口,25.028973,121.549024
489,238,54,696606.0133785015,瑞湖陽光街口,25.073119000000002,121.575965
490,38,55,706685.0133785015,臺灣師範大學(圖書館),25.026603,121.52944
491,7,56,716684.5133785015,信義廣場(台北101),25.03303889,121.56561940000002
492,245,56,716684.5133785015,捷運中山國中站,25.060632000000002,121.544028
493,3,57,727650.0133785015,台北市政府,25.03779722,121.56516940000002
494,21,57,727650.0133785015,民生敦化路口,25.057985000000002,121.54898200000001
495,82,58,737982.0133785015,捷運西門站(3號出口),25.041778,121.508693
496,111,58,737982.0133785015,捷運忠孝復興站(2號出口),25.040184,121.543497
497,174,58,737982.0133785015,捷運小巨蛋站(5號出口),25.051702,121.55305700000001
498,120,59,749540.346711835,捷運龍山寺站(1號出口),25.035479000000002,121.50026000000001
499,55,60,759517.346711835,臺北田徑場,25.049505,121.54940800000001
500,221,61,771548.346711835,泰和公園,25.019276,121.57106999999999
501,210,62,787129.346711835,樂群二敬業四路口,25.079766,121.55813500000001
502,46,63,800456.346711835,南港國小,25.056504,121.61138899999999
