index,station_no,class,Diff,name,lat,lng
0,1,0,0.0,捷運市政府站(3號出口),25.04085789,121.5679044
1,61,1,29268.0,台灣科技大學,25.0131,121.539723
2,36,2,50919.0,臺大資訊大樓,25.02101,121.54153000000001
3,500101022,3,74497.0,捷運公館站(2號出口),25.01491,121.53438
4,97,4,93322.5,捷運劍潭站(2號出口),25.082825,121.524721
5,134,4,93322.5,捷運芝山站(2號出口),25.103360000000002,121.52262900000001
6,132,5,111082.0,羅斯福新生南路口,25.01603085,121.5331757
7,5,6,130594.5,興雅國中,25.03656389,121.56866389999999
8,6,6,130594.5,臺北南山廣場,25.034047,121.565973
9,2,7,148986.35020242914,捷運國父紀念館站(2號出口),25.041254000000002,121.55742
10,173,7,148986.35020242914,捷運松江南京站(7號出口),25.052181,121.53321100000001
11,37,7,148986.35020242914,捷運東門站(4號出口),25.0337,121.52898799999998
12,306,7,148986.35020242914,捷運古亭站(6號出口),25.027781,121.52198
13,88,7,148986.35020242914,捷運象山站,25.032922,121.57087
14,279,7,148986.35020242914,南港車站(興華路),25.053432,121.60633100000001
15,122,7,148986.35020242914,捷運港墘站(2號出口),25.079666,121.57583999999999
16,164,7,148986.35020242914,捷運奇岩站,25.126286,121.500801
17,67,7,148986.35020242914,捷運臺大醫院(4號出口),25.042973,121.516428
18,115,7,148986.35020242914,臺北轉運站,25.048222,121.520526
19,27,7,148986.35020242914,捷運南港展覽館站(5號出口),25.05469,121.61668999999999
20,289,7,148986.35020242914,牯嶺公園,25.023377,121.51883500000001
21,364,7,148986.35020242914,嘉興公園,25.02109,121.55219
22,119,7,148986.35020242914,捷運劍南路站(2號出口),25.08418,121.555116
23,24,7,148986.35020242914,信義建國路口,25.03293,121.53747
24,87,7,148986.35020242914,捷運大安站,25.033078,121.543057
25,146,7,148986.35020242914,捷運士林站(2號出口),25.092546,121.526556
26,70,7,148986.35020242914,捷運台北101/世貿站,25.032752,121.561645
27,139,7,148986.35020242914,永樂市場,25.054501000000002,121.510549
28,293,7,148986.35020242914,自來水園區,25.013284,121.53003700000001
29,215,7,148986.35020242914,捷運北門站(3號出口),25.04993,121.51036699999999
30,313,7,148986.35020242914,光華商場,25.04515,121.532738
31,3,7,148986.35020242914,台北市政府,25.03779722,121.56516940000002
32,21,7,148986.35020242914,民生敦化路口,25.057985000000002,121.54898200000001
33,82,7,148986.35020242914,捷運西門站(3號出口),25.041778,121.508693
34,111,7,148986.35020242914,捷運忠孝復興站(2號出口),25.040184,121.543497
35,174,7,148986.35020242914,捷運小巨蛋站(5號出口),25.051702,121.55305700000001
36,7,7,148986.35020242914,信義廣場(台北101),25.03303889,121.56561940000002
37,245,7,148986.35020242914,捷運中山國中站,25.060632000000002,121.544028
38,38,7,148986.35020242914,臺灣師範大學(圖書館),25.026603,121.52944
39,17,7,148986.35020242914,民生光復路口,25.05862,121.55514
40,126,7,148986.35020242914,敦化基隆路口,25.022073000000002,121.548336
41,235,7,148986.35020242914,市民東興路口,25.048460000000002,121.565928
42,131,7,148986.35020242914,洲子二號公園,25.079322,121.568688
43,266,7,148986.35020242914,洲子一號公園,25.080257999999997,121.564806
44,64,7,148986.35020242914,國家圖書館,25.037773,121.51702900000001
45,150,7,148986.35020242914,松德公園,25.036568,121.57343
46,334,7,148986.35020242914,敦化南路二段103巷口,25.028973,121.549024
47,238,7,148986.35020242914,瑞湖陽光街口,25.073119000000002,121.575965
48,186,7,148986.35020242914,臺北市立大學,25.035414000000003,121.514218
49,195,7,148986.35020242914,信義杭州路口(中華電信總公司),25.035851,121.523987
50,4,7,148986.35020242914,市民廣場,25.03603611,121.562325
51,253,7,148986.35020242914,芝山抽水站,25.101423,121.52798999999999
52,113,7,148986.35020242914,仁愛逸仙路口,25.037724,121.561178
53,372,7,148986.35020242914,重慶民族路口,25.06825,121.51359
54,222,7,148986.35020242914,撫順公園,25.064107999999997,121.522065
55,340,7,148986.35020242914,南京光復路口,25.05143,121.55716000000001
56,300,7,148986.35020242914,信義基隆路口,25.033209,121.55873100000001
57,258,7,148986.35020242914,聯合醫院中興院區,25.052096,121.507979
58,248,7,148986.35020242914,喬治工商,25.027123,121.55556599999998
59,351,7,148986.35020242914,中山青島路口,25.04469,121.51953999999999
60,129,7,148986.35020242914,捷運文德站(2號出口),25.078424,121.58456000000001
61,194,7,148986.35020242914,市民林森路口,25.047957999999998,121.52438799999999
62,363,7,148986.35020242914,復興南路一段340巷口,25.036170000000002,121.5435
63,8,7,148986.35020242914,世貿三館,25.03521389,121.5636889
64,53,7,148986.35020242914,八德市場,25.044781,121.53660900000001
65,106,7,148986.35020242914,西園艋舺路口,25.032932000000002,121.497674
66,318,7,148986.35020242914,成功金龍路口,25.084135,121.59483999999999
67,326,7,148986.35020242914,基隆路一段101巷口,25.04525,121.56709
68,28,7,148986.35020242914,五常公園,25.04814,121.57467
69,333,7,148986.35020242914,復盛公園,25.047428,121.561182
70,90,7,148986.35020242914,老松國小,25.037782999999997,121.50170800000001
71,397,7,148986.35020242914,劍潭海外青年活動中心,25.079603,121.5237
72,290,7,148986.35020242914,新生公園,25.068387,121.530188
73,41,7,148986.35020242914,中研公園,25.047425,121.61370600000001
74,322,7,148986.35020242914,永盛公園(民生東路一段23巷),25.058835000000002,121.52503999999999
75,316,7,148986.35020242914,民有一號公園,25.060910999999997,121.54763
76,354,7,148986.35020242914,建國濟南路口,25.040032999999998,121.53808400000001
77,51,7,148986.35020242914,建國農安街口,25.065031,121.536775
78,391,7,148986.35020242914,景仁公園,24.9966,121.540295
79,161,7,148986.35020242914,大豐公園,25.131142999999998,121.503768
80,203,7,148986.35020242914,古亭國中,25.024487,121.51057
81,166,7,148986.35020242914,臺北市立景美女中,24.980601999999998,121.556177
82,324,7,148986.35020242914,市立圖書館葫蘆堵分館,25.08221,121.5108
83,348,7,148986.35020242914,民生立體停車場,25.058522,121.55941999999999
84,170,7,148986.35020242914,新東公園,25.059245,121.56888300000001
85,188,7,148986.35020242914,社子國小,25.090293,121.50188999999999
86,43,7,148986.35020242914,凌雲市場,25.035639,121.614154
87,243,7,148986.35020242914,社子公園,25.090201999999998,121.50621899999999
88,330,7,148986.35020242914,迪化休閒運動公園,25.07491,121.5115
89,500101003,7,148986.35020242914,國北教大實小東側門,25.02429,121.54123999999999
90,47,7,148986.35020242914,捷運忠孝新生站(4號出口),25.042275,121.53393899999999
91,99,7,148986.35020242914,捷運雙連站(2號出口),25.057866,121.520711
92,101,7,148986.35020242914,華山文創園區,25.043668,121.52848700000001
93,185,7,148986.35020242914,?公公園,25.042342,121.54605
94,240,7,148986.35020242914,南京建國路口,25.052141,121.53680200000001
95,378,7,148986.35020242914,陽光街321巷口,25.073193,121.57869099999999
96,500101002,7,148986.35020242914,復興南路二段273號前,25.02565,121.54356999999999
97,500101017,7,148986.35020242914,羅斯福路三段269巷5號前,25.01913,121.53079
98,500119062,7,148986.35020242914,臺大公館停車場西北側,25.01345,121.53798
99,500101020,7,148986.35020242914,溫州停車場,25.02093,121.5331
100,500119080,7,148986.35020242914,臺大小小福西南側,25.01539,121.53686
101,1289,7,148986.35020242914,忠山市民活動中心,25.078201999999997,121.62449299999999
102,269,7,148986.35020242914,三軍總醫院,25.070723,121.590304
103,500101018,7,148986.35020242914,溫州公園,25.01895,121.53156000000001
104,500101093,7,148986.35020242914,大安區健康服務中心,25.021469,121.544069
105,500101008,7,148986.35020242914,新生南路三段52號前,25.02112,121.53407
106,500101092,7,148986.35020242914,和平實小東北側,25.021641,121.54704
107,500119063,7,148986.35020242914,臺大第二行政大樓南側,25.016029999999997,121.53635
108,500119065,7,148986.35020242914,臺大二號館,25.01699,121.53573999999999
109,265,7,148986.35020242914,中央北路四段30巷口,25.135394,121.478
110,283,7,148986.35020242914,中央北路四段540巷口,25.127959,121.4677
111,500106002,7,148986.35020242914,汀州思源街口東南側,25.014697,121.531908
112,500101004,7,148986.35020242914,和平公園東側,25.02351,121.54281999999999
113,500119056,7,148986.35020242914,臺大農化新館西側,25.016270000000002,121.53535
114,500101006,7,148986.35020242914,復興南路二段280號前,25.02429,121.54328000000001
115,500101007,7,148986.35020242914,復興南路二段340巷口,25.02253,121.54326
116,500101015,7,148986.35020242914,大安運動中心停車場,25.020348000000002,121.546446
117,500101019,7,148986.35020242914,和平臥龍街口,25.024461,121.546705
118,500119057,7,148986.35020242914,臺大五號館西側,25.01666,121.53718
119,500119082,7,148986.35020242914,臺大四號館東北側,25.01703,121.53781000000001
120,500119073,7,148986.35020242914,臺大校史館南側,25.01751,121.53568999999999
121,196,7,148986.35020242914,新湖國小,25.068744,121.58923300000001
122,246,7,148986.35020242914,國立故宮博物院,25.098743,121.54808600000001
123,500101035,7,148986.35020242914,臺大土木研究大樓前,25.017870000000002,121.5476
124,500119059,7,148986.35020242914,臺大共同教室北側,25.01595,121.53791000000001
125,500119081,7,148986.35020242914,臺大教研館北側,25.013370000000002,121.53908999999999
126,500119064,7,148986.35020242914,臺大明達館機車停車場,25.01754,121.54398
127,500119074,7,148986.35020242914,臺大生命科學館西北側,25.01548,121.53825
128,500119089,7,148986.35020242914,臺大獸醫館南側,25.01791,121.54241999999999
129,500119008,7,148986.35020242914,臺大檔案展示館,25.01391,121.52895
130,500119072,7,148986.35020242914,臺大原分所北側,25.018810000000002,121.53868
131,500119069,7,148986.35020242914,臺大思亮館東南側,25.02074,121.53906
132,500119084,7,148986.35020242914,臺大鄭江樓北側,25.019000000000002,121.54305
133,500101037,7,148986.35020242914,臺大國青大樓宿舍前,25.02076,121.54432
134,500119007,7,148986.35020242914,臺大水源修齊會館,25.014110000000002,121.52996999999999
135,374,7,148986.35020242914,麗湖國小,25.073322,121.602225
136,402,7,148986.35020242914,下灣公園,25.065159,121.595611
137,211,7,148986.35020242914,星雲金湖街口,25.080915,121.59733899999999
138,356,7,148986.35020242914,臺北市網球中心,25.0674,121.59749
139,500101040,7,148986.35020242914,臺大綜合體育館停車場前,25.0222,121.53626000000001
140,260,7,148986.35020242914,民權瑞光路口,25.068616,121.583991
141,335,7,148986.35020242914,景文中學,24.986301,121.56785500000001
142,500101030,7,148986.35020242914,臺大永齡生醫工程館,25.0136,121.54656000000001
143,180,7,148986.35020242914,福華商場,25.06877,121.59265400000001
144,239,7,148986.35020242914,新明路262巷口,25.056641,121.583403
145,500101021,7,148986.35020242914,銘傳國小側門,25.01385,121.53549
146,500101011,7,148986.35020242914,羅斯福路三段333巷9號旁,25.017570000000003,121.53271000000001
147,500106003,7,148986.35020242914,捷運公館站(1號出口),25.014529,121.534374
148,500101012,7,148986.35020242914,辛亥路一段30號前,25.01986,121.52982
149,500101016,7,148986.35020242914,羅斯福路三段245號前,25.019270000000002,121.52989
150,207,7,148986.35020242914,福安國中,25.103242,121.487477
151,102,7,148986.35020242914,臺北市客家文化主題公園,25.020429999999998,121.525322
152,141,7,148986.35020242914,文山行政中心,24.989902,121.569984
153,500101013,7,148986.35020242914,和平復興路口西北側,25.02543,121.54332
154,247,7,148986.35020242914,木柵公園,24.987144,121.560627
155,500101091,7,148986.35020242914,國北教大側門南側,25.022864000000002,121.546622
156,325,7,148986.35020242914,南京東路六段368巷,25.05827,121.58707
157,500119006,7,148986.35020242914,臺大卓越研究大樓,25.01466,121.52917
158,366,7,148986.35020242914,碧湖公園,25.07988,121.58287
159,233,7,148986.35020242914,捷運忠義站,25.131411,121.47415500000001
160,264,7,148986.35020242914,秀山區民活動中心,25.145936,121.49300900000001
161,381,7,148986.35020242914,民權東路六段15巷,25.06853,121.578125
162,500101036,7,148986.35020242914,臺大萬才館前,25.02032,121.54496999999999
163,500119086,7,148986.35020242914,臺大圖資系館北側,25.01804,121.53928
164,500119054,7,148986.35020242914,臺大心理系館南側,25.01941,121.5404
165,500119068,7,148986.35020242914,臺大社會系館南側,25.01987,121.54175
166,500119044,7,148986.35020242914,臺大仰萃樓東南側,25.01408,121.53759
167,500119055,7,148986.35020242914,臺大樂學館東側,25.01793,121.53585
168,500119046,7,148986.35020242914,臺大管理學院二館北側,25.01355,121.53673
169,500119060,7,148986.35020242914,臺大共同教室東南側,25.01566,121.53786000000001
170,500101034,7,148986.35020242914,臺大動物醫院前,25.01576,121.54291
171,500119047,7,148986.35020242914,臺大土木系館,25.01761,121.53844
172,500119078,7,148986.35020242914,臺大森林館北側,25.017039999999998,121.53888
173,500119076,7,148986.35020242914,臺大博理館西側,25.01922,121.54195
174,500101014,7,148986.35020242914,羅斯福路三段311號前,25.01717,121.53201999999999
175,500106004,7,148986.35020242914,捷運公館站(4號出口),25.015069,121.533828
176,500101038,7,148986.35020242914,臺大社科院圖書館前,25.02101,121.54283999999998
177,500101039,7,148986.35020242914,臺大法人語言訓練中心前,25.02104,121.54081000000001
178,500101005,7,148986.35020242914,辛亥復興路口西北側,25.02153,121.54298999999999
179,500119070,7,148986.35020242914,臺大椰林小舖,25.015610000000002,121.53583
180,500101029,7,148986.35020242914,臺大環研大樓,25.01234,121.54503000000001
181,228,7,148986.35020242914,捷運萬芳社區站,24.998811,121.56788999999999
182,393,7,148986.35020242914,內溝溪生態展示館,25.087217000000003,121.623062
183,184,7,148986.35020242914,劍潭社區,25.084759,121.537892
184,390,7,148986.35020242914,稻香重三路口,25.139937,121.489594
185,500101041,7,148986.35020242914,辛亥新生路口東南側,25.02218,121.53473999999999
186,500119045,7,148986.35020242914,臺大農業陳列館北側,25.01839,121.53403999999999
187,358,7,148986.35020242914,新明成功路口,25.060579999999998,121.5911
188,256,7,148986.35020242914,中山中正路口,25.096507,121.527526
189,342,7,148986.35020242914,文林建民路口,25.107789999999998,121.51468
190,500101025,7,148986.35020242914,臺灣科技大學側門,25.01295,121.53973
191,500101042,7,148986.35020242914,基隆長興路口東側,25.01727,121.54471000000001
192,355,7,148986.35020242914,福山公園,25.04478,121.61758999999999
193,500101094,7,148986.35020242914,辛亥泰順街口,25.021929999999998,121.53165
194,383,7,148986.35020242914,一壽橋,24.978479999999998,121.55545
195,384,7,148986.35020242914,松基公園,25.05491,121.5448
196,500101024,7,148986.35020242914,臺灣科技大學正門,25.01451,121.54142
197,136,7,148986.35020242914,國立臺北護理健康大學,25.117457,121.51668000000001
198,500101031,7,148986.35020242914,臺大男七舍前,25.01537,121.54698
199,500119058,7,148986.35020242914,臺大舊體育館西側,25.0198,121.53583
200,500119051,7,148986.35020242914,臺大立體機車停車場,25.01616,121.54251000000001
201,209,7,148986.35020242914,捷運復興崗站,25.137837,121.486071
202,323,7,148986.35020242914,新興公園,25.061567999999998,121.52439199999999
203,365,7,148986.35020242914,陽明大學,25.119120000000002,121.51223
204,500101009,7,148986.35020242914,新生南路三段66號前,25.01976,121.53383999999998
205,500101023,7,148986.35020242914,第二學生活動中心,25.012439999999998,121.53661000000001
206,380,7,148986.35020242914,塔悠疏散門,25.064713,121.567899
207,500106001,7,148986.35020242914,臺北自來水事業處,25.013741,121.53068
208,337,7,148986.35020242914,彩虹橋,25.05301,121.57592
209,234,7,148986.35020242914,永欣綠地,25.124162,121.526071
210,278,7,148986.35020242914,明美公園,25.062557,121.58606499999999
211,157,7,148986.35020242914,麗山國小,25.082703,121.571467
212,212,7,148986.35020242914,北安大直街口,25.084223,121.549452
213,500101010,7,148986.35020242914,新生南路三段82號前,25.01894,121.53361000000001
214,500119079,7,148986.35020242914,臺大一號館,25.01698,121.53455
215,50,7,148986.35020242914,民權運動公園,25.062002,121.56018600000002
216,500119009,7,148986.35020242914,臺大水源舍區B棟,25.01525,121.53008999999999
217,500119005,7,148986.35020242914,臺大水源舍區A棟,25.01493,121.53043999999998
218,151,7,148986.35020242914,考試院,24.987507,121.54982700000001
219,284,7,148986.35020242914,華聲公園,25.096166,121.52209599999999
220,96,7,148986.35020242914,三民公園,25.061567,121.566558
221,267,7,148986.35020242914,八德中坡路口,25.050620000000002,121.58019399999999
222,319,7,148986.35020242914,民族林森路口,25.068507,121.525322
223,262,7,148986.35020242914,永安藝文館-表演36房,24.984144,121.56906399999998
224,377,7,148986.35020242914,南港路二段178巷口,25.053675,121.59969299999999
225,124,7,148986.35020242914,振華公園,25.115863,121.51816299999999
226,216,7,148986.35020242914,培英公園,25.082553,121.544601
227,274,7,148986.35020242914,扶輪親恩公園,25.066997,121.57983300000001
228,368,7,148986.35020242914,臺灣戲曲中心,25.102079999999997,121.51978999999999
229,500119077,7,148986.35020242914,臺大博雅館西側,25.0189,121.536
230,44,7,148986.35020242914,捷運南港軟體園區站(2號出口),25.05973,121.61618700000001
231,201,7,148986.35020242914,東陽公園,25.057164,121.597924
232,336,7,148986.35020242914,承德路三段8巷口,25.06382,121.51815
233,171,7,148986.35020242914,文山運動中心,24.996842,121.559651
234,214,7,148986.35020242914,基河一期國宅,25.055935,121.578645
235,192,7,148986.35020242914,捷運葫洲站(1號出口),25.072485,121.607955
236,398,7,148986.35020242914,聯合醫院陽明院區,25.104546,121.531949
237,142,7,148986.35020242914,捷運木柵站,24.997996,121.57444
238,268,7,148986.35020242914,南港高工,25.056655,121.607055
239,143,7,148986.35020242914,捷運動物園站(2號出口),24.997659,121.57875200000001
240,206,7,148986.35020242914,捷運辛亥站,25.005385999999998,121.55716000000001
241,73,7,148986.35020242914,酒泉延平路口,25.072228,121.510195
242,500119066,7,148986.35020242914,臺大凝態館南側,25.02157,121.53633
243,227,7,148986.35020242914,麗山高中,25.084244,121.57668000000001
244,500119087,7,148986.35020242914,臺大總圖書館西南側,25.0169,121.54031
245,500101033,7,148986.35020242914,臺大男六舍前,25.01664,121.5452
246,191,7,148986.35020242914,捷運大湖公園站(2號出口),25.083873,121.60206000000001
247,116,7,148986.35020242914,福林公園,25.096122,121.53021499999998
248,329,7,148986.35020242914,樂群二明水路口,25.079829999999998,121.55236000000001
249,165,7,148986.35020242914,捷運唭哩岸站(2號出口),25.120788,121.505693
250,299,7,148986.35020242914,萬華國中,25.029264,121.499358
251,281,7,148986.35020242914,松江公園,25.050245,121.532725
252,382,7,148986.35020242914,聯合醫院和平院區,25.03516,121.50639
253,328,7,148986.35020242914,一江公園,25.053160000000002,121.53146000000001
254,271,7,148986.35020242914,伊通長安路口,25.048334,121.53469299999999
255,347,7,148986.35020242914,博愛寶慶路口,25.041339999999998,121.51135
256,254,7,148986.35020242914,立功立德路口,25.125377,121.47148200000001
257,375,7,148986.35020242914,銘傳大學,25.087714000000002,121.526766
258,302,7,148986.35020242914,敦北公園,25.060745999999998,121.550711
259,500119085,7,148986.35020242914,臺大電機二館東南側,25.01857,121.54247
260,500119090,7,148986.35020242914,臺大新體育館東南側,25.02112,121.53591000000002
261,500119061,7,148986.35020242914,臺大鹿鳴堂東側,25.01511,121.53786000000001
262,500119088,7,148986.35020242914,臺大黑森林西側,25.01995,121.54347
263,178,7,148986.35020242914,延平國宅,25.078908,121.510306
264,193,7,148986.35020242914,舊莊區民活動中心,25.041276999999997,121.61935
265,317,7,148986.35020242914,雙園國中,25.026823,121.491675
266,69,7,148986.35020242914,興豐公園,24.999837,121.54777800000001
267,109,7,148986.35020242914,林安泰古厝,25.071606,121.530805
268,77,7,148986.35020242914,民生活動中心,25.059147,121.56296999999999
269,385,7,148986.35020242914,和興路26巷口,24.9856,121.54531000000001
270,208,7,148986.35020242914,龍山國小,25.035555,121.495342
271,224,7,148986.35020242914,社正公園,25.088243,121.510535
272,125,7,148986.35020242914,華西公園,25.038609,121.49849499999999
273,237,7,148986.35020242914,文山第二行政中心,25.001148999999998,121.551418
274,98,7,148986.35020242914,羅斯福景隆街口,24.999378,121.54019699999999
275,205,7,148986.35020242914,木柵光輝路口,24.988241,121.55561000000002
276,168,7,148986.35020242914,河堤國小,25.022879999999997,121.522855
277,272,7,148986.35020242914,忠順區民活動中心,24.984707,121.563125
278,296,7,148986.35020242914,萬和二號公園,25.001545,121.536446
279,370,7,148986.35020242914,新和國小,25.02656,121.50242
280,500101026,7,148986.35020242914,公館公園,25.01137,121.54061999999999
281,500119043,7,148986.35020242914,臺大男八舍東側,25.01729,121.54531000000001
282,58,7,148986.35020242914,捷運善導寺站(1號出口),25.045267000000003,121.5222
283,341,7,148986.35020242914,捷運芝山站(1號出口),25.100939999999998,121.52243
284,177,7,148986.35020242914,葫蘆國小,25.082538,121.50749499999999
285,18,7,148986.35020242914,臺北市藝文推廣處,25.049408,121.55261000000002
286,360,7,148986.35020242914,民權建國路口,25.062520000000003,121.53753999999999
287,292,7,148986.35020242914,合心廣場,25.046360999999997,121.582848
288,352,7,148986.35020242914,民權迪化街口,25.06318,121.50943999999998
289,159,7,148986.35020242914,捷運西湖站(1號出口),25.082866,121.566695
290,321,7,148986.35020242914,莒光大埔街口,25.031334,121.50508500000001
291,379,7,148986.35020242914,春光公園,25.042619000000002,121.58076200000001
292,298,7,148986.35020242914,太原五原路口,25.056458,121.516976
293,373,7,148986.35020242914,中崙福成宮,25.04525,121.54663500000001
294,19,7,148986.35020242914,象山公園,25.02863,121.56981
295,130,7,148986.35020242914,羅斯福寧波東街口,25.031445,121.519411
296,153,7,148986.35020242914,蔣渭水紀念公園,25.059885,121.516299
297,400,7,148986.35020242914,和平敦化路口,25.02444,121.549076
298,33,7,148986.35020242914,中崙高中,25.048779999999997,121.56087
299,95,7,148986.35020242914,東園國小,25.023393,121.497679
300,148,7,148986.35020242914,捷運明德站,25.110331,121.518316
301,255,7,148986.35020242914,光復南路22巷口,25.046914,121.557674
302,315,7,148986.35020242914,捷運萬隆站(1號出口),25.001447,121.53903700000001
303,250,7,148986.35020242914,忠孝東路三段217巷口,25.04184,121.539873
304,396,7,148986.35020242914,新東街51巷口,25.061501,121.563318
305,213,7,148986.35020242914,蘭雅國小,25.107782,121.52310700000001
306,331,7,148986.35020242914,民族玉門街口,25.06859,121.51973999999998
307,338,7,148986.35020242914,成德國中,25.04573,121.58793999999999
308,362,7,148986.35020242914,和平金山路口,25.02672,121.52533000000001
309,286,7,148986.35020242914,德明財經科技大學,25.086372,121.56571299999999
310,232,7,148986.35020242914,中山天母路口,25.118843,121.529738
311,310,7,148986.35020242914,國立臺北大學(臺北校區),25.057923000000002,121.542732
312,500119053,7,148986.35020242914,臺大天文數學館南側,25.021079999999998,121.53783
313,500119083,7,148986.35020242914,臺大新生教室南側,25.0196,121.53846000000001
314,9,7,148986.35020242914,松德站,25.031785,121.57448000000001
315,230,7,148986.35020242914,湖光國宅,25.075366,121.58081100000001
316,297,7,148986.35020242914,長沙公園,25.041701999999997,121.499922
317,500101032,7,148986.35020242914,臺大男一舍前,25.016370000000002,121.54535
318,500119052,7,148986.35020242914,臺大工綜館南側,25.01857,121.54059
319,121,7,148986.35020242914,龍江南京路口,25.052979999999998,121.540568
320,156,7,148986.35020242914,東湖國小,25.06853,121.61538
321,386,7,148986.35020242914,錦州吉林路口,25.06029,121.52981000000001
322,236,7,148986.35020242914,關渡自然公園,25.119292,121.46913799999999
323,500101028,7,148986.35020242914,臺大醫學院附設癌醫中心,25.01426,121.54382
324,189,7,148986.35020242914,金瑞公園(金龍路),25.087987,121.58781
325,23,7,148986.35020242914,東新國小,25.055073999999998,121.60279799999999
326,204,7,148986.35020242914,臺北市立大學(天母校區),25.113625,121.53742
327,345,7,148986.35020242914,中正運動中心,25.03806,121.51943
328,107,7,148986.35020242914,捷運小南門站(1號出口),25.036402,121.509422
329,34,7,148986.35020242914,捷運行天宮站(1號出口),25.058369,121.53293400000001
330,59,7,148986.35020242914,林森公園,25.052227,121.525805
331,252,7,148986.35020242914,大安運動中心,25.020544,121.545608
332,105,7,148986.35020242914,峨嵋停車場,25.044412,121.50540900000001
333,273,7,148986.35020242914,芝山國小,25.110437,121.535954
334,359,7,148986.35020242914,健安新城,25.05601,121.56358
335,74,7,148986.35020242914,信義連雲街口,25.033817000000003,121.530547
336,320,7,148986.35020242914,捷運南京三民站(3號出口),25.051287,121.56426200000001
337,295,7,148986.35020242914,敦親公園,25.023473000000003,121.541083
338,350,7,148986.35020242914,復興南路二段128巷口,25.02904,121.54336
339,349,7,148986.35020242914,重慶酒泉街口,25.07183,121.51364
340,392,7,148986.35020242914,南京東興路口,25.051489,121.565347
341,80,7,148986.35020242914,華江高中,25.02751,121.495869
342,282,7,148986.35020242914,富台公園,25.041935000000002,121.571999
343,123,7,148986.35020242914,天母運動公園,25.116325,121.534136
344,327,7,148986.35020242914,重慶南海路口,25.031579999999998,121.51463999999999
345,145,7,148986.35020242914,樹德公園,25.066688,121.516149
346,158,7,148986.35020242914,捷運東湖站,25.067026000000002,121.61355
347,190,7,148986.35020242914,捷運大直站(3號出口),25.079278,121.546683
348,394,7,148986.35020242914,松德虎林街口,25.038352,121.57624799999999
349,48,7,148986.35020242914,南港車站(忠孝東路),25.05247,121.608202
350,128,7,148986.35020242914,成功國宅,25.026808,121.546726
351,197,7,148986.35020242914,饒河夜市(八德路側),25.049845,121.57188500000001
352,276,7,148986.35020242914,三興公園,25.028679,121.55932
353,277,7,148986.35020242914,中山堂,25.044091,121.51025
354,154,7,148986.35020242914,中正基河路口,25.093396,121.51986699999999
355,343,7,148986.35020242914,忠孝東路六段185巷口,25.049039999999998,121.58755
356,137,7,148986.35020242914,國防大學,25.137976000000002,121.49306599999998
357,155,7,148986.35020242914,瑞光港墘路口,25.076193,121.57505
358,500119071,7,148986.35020242914,臺大計資中心南側,25.02036,121.53992
359,500119067,7,148986.35020242914,臺大社科院西側,25.020529999999997,121.54145
360,72,7,148986.35020242914,新生長安路口,25.048610999999998,121.52934599999999
361,367,7,148986.35020242914,豐年公園,25.13597,121.497019
362,127,7,148986.35020242914,東湖國中,25.073276999999997,121.61952099999999
363,226,7,148986.35020242914,向陽南港路口,25.054365,121.594228
364,361,7,148986.35020242914,振興醫院,25.1177,121.5222
365,500119049,7,148986.35020242914,臺大女九舍西南側,25.019370000000002,121.53902
366,263,7,148986.35020242914,至善臨溪路口,25.097103,121.542153
367,144,7,148986.35020242914,國立政治大學,24.988363,121.576536
368,167,7,148986.35020242914,臺北市立天文館,25.095714,121.518046
369,353,7,148986.35020242914,紀州庵,25.02088,121.52049
370,376,7,148986.35020242914,民生建國路口,25.057778,121.536915
371,86,7,148986.35020242914,民權復興路口,25.062344,121.545138
372,309,7,148986.35020242914,三軍總醫院(松山分院),25.054470000000002,121.55609799999999
373,500101027,7,148986.35020242914,臺灣科技大學後門,25.01182,121.54165
374,179,7,148986.35020242914,南港公園,25.041355,121.59073000000001
375,305,7,148986.35020242914,碧山公園,25.087413,121.592253
376,40,7,148986.35020242914,玉成公園,25.04287,121.5864
377,357,7,148986.35020242914,松友公園,25.034229999999997,121.57636000000001
378,75,7,148986.35020242914,基隆光復路口,25.0300508,121.557635
379,251,7,148986.35020242914,華齡公園,25.083023,121.520692
380,312,7,148986.35020242914,捷運信義安和站(1號出口),25.033323,121.55278700000001
381,92,7,148986.35020242914,開封西寧路口,25.046618,121.50716899999999
382,287,7,148986.35020242914,第二果菜批發市場,25.066423999999998,121.53735400000001
383,135,7,148986.35020242914,捷運石牌站(2號出口),25.114513,121.515677
384,388,7,148986.35020242914,景華街128巷口,24.995563,121.54709199999999
385,149,7,148986.35020242914,北投運動中心,25.116665,121.509621
386,389,7,148986.35020242914,福德國小,25.038324,121.58624499999999
387,68,7,148986.35020242914,國興青年路口,25.025865,121.50653600000001
388,147,7,148986.35020242914,士林運動中心,25.089175,121.52181399999999
389,225,7,148986.35020242914,臥龍樂業街口,25.0186,121.55483899999999
390,257,7,148986.35020242914,錦德公園,25.023316,121.49263700000002
391,261,7,148986.35020242914,健康新城,25.054095,121.560928
392,344,7,148986.35020242914,捷運忠孝復興站(5號出口),25.04264,121.54401000000001
393,76,7,148986.35020242914,新生長春路口,25.056387,121.52752199999999
394,103,7,148986.35020242914,萬華車站,25.033639,121.503028
395,500119048,7,148986.35020242914,臺大大一女舍北側,25.01547,121.53436
396,176,7,148986.35020242914,興安華城,25.055997,121.542318
397,163,7,148986.35020242914,捷運麟光站,25.018097,121.559279
398,369,7,148986.35020242914,世新大學,24.98862,121.54361000000002
399,303,7,148986.35020242914,安泰街83巷,25.076691,121.617085
400,39,7,148986.35020242914,南港世貿公園,25.058000000000003,121.61421999999999
401,346,7,148986.35020242914,陽明高中,25.09157,121.51669
402,217,7,148986.35020242914,臺北花市,25.062645,121.57426699999999
403,29,7,148986.35020242914,金山愛國路口,25.03164,121.52655
404,294,7,148986.35020242914,朱崙商場,25.047617000000002,121.54043100000001
405,52,7,148986.35020242914,建國長春路口,25.054761,121.536925
406,231,7,148986.35020242914,內政部營建署,25.047805,121.545022
407,56,7,148986.35020242914,仁愛林森路口,25.038954,121.52233400000001
408,244,7,148986.35020242914,復興市民路口,25.045907999999997,121.54373600000001
409,187,7,148986.35020242914,仁愛延吉街口,25.037465,121.555769
410,259,7,148986.35020242914,南京遼寧街口,25.051761,121.54216799999999
411,395,7,148986.35020242914,安強公園,25.036844,121.57541299999998
412,85,7,148986.35020242914,信義敦化路口,25.033362,121.54911000000001
413,311,7,148986.35020242914,捷運忠孝新生站(2號出口),25.042392,121.532229
414,172,7,148986.35020242914,捷運南京三民站(1號出口),25.051562,121.562891
415,500101001,7,148986.35020242914,捷運科技大樓站,25.02605,121.5436
416,183,7,148986.35020242914,圓環站,25.05379,121.514179
417,60,7,148986.35020242914,中山行政中心,25.064317000000003,121.53348700000001
418,218,7,148986.35020242914,松山高中,25.043298999999998,121.564108
419,280,7,148986.35020242914,士林新天地,25.089033999999998,121.51732
420,401,7,148986.35020242914,南京新生路口,25.051944,121.52766100000001
421,31,7,148986.35020242914,辛亥新生路口,25.022413,121.53456000000001
422,114,7,148986.35020242914,蘭雅公園,25.109907999999997,121.53038600000001
423,182,7,148986.35020242914,捷運古亭站(2號出口),25.0253,121.523537
424,79,7,148986.35020242914,捷運民權西路站(3號出口),25.061285,121.520205
425,104,7,148986.35020242914,台北花木批發市場,25.004023,121.54073999999999
426,42,7,148986.35020242914,捷運後山埤站(1號出口),25.04431,121.58174
427,304,7,148986.35020242914,金華公園,25.029902,121.53123500000001
428,63,7,148986.35020242914,仁愛醫院,25.037569,121.54563200000001
429,118,7,148986.35020242914,大業大同街口,25.136929000000002,121.499152
430,169,7,148986.35020242914,植物園,25.030015,121.509813
431,403,7,148986.35020242914,捷運內湖站(1號出口),25.083868,121.593929
432,404,7,148986.35020242914,民族延平路口,25.068653,121.51056899999999
433,32,7,148986.35020242914,捷運六張犁站,25.023884,121.55316100000002
434,57,7,148986.35020242914,新生和平路口,25.026217000000003,121.53518999999999
435,307,7,148986.35020242914,仁愛安和路口,25.037570000000002,121.552076
436,91,7,148986.35020242914,市立美術館,25.070629,121.52326799999999
437,100,7,148986.35020242914,金山市民路口,25.045753,121.530697
438,242,7,148986.35020242914,關渡宮,25.117472,121.46316100000001
439,220,7,148986.35020242914,大稻埕公園,25.059162,121.510512
440,229,7,148986.35020242914,市民太原路口,25.049394,121.51461100000002
441,140,7,148986.35020242914,捷運大橋頭站(2號出口),25.063404000000002,121.51290900000001
442,500119050,7,148986.35020242914,臺大小福樓東側,25.01846,121.5376
443,162,7,148986.35020242914,捷運中山國小站(4號出口),25.062924,121.52772
444,288,7,148986.35020242914,濟南紹興路口,25.041928,121.52459099999999
445,500119075,7,148986.35020242914,臺大第一活動中心西南側,25.01761,121.53995
446,371,7,148986.35020242914,南門國中,25.035320000000002,121.50833999999999
447,16,7,148986.35020242914,松山家商,25.036084,121.57913500000001
448,65,7,148986.35020242914,青年公園3號出口,25.022725,121.50270800000001
449,84,7,148986.35020242914,復華花園新城,25.029705,121.502899
450,10,7,148986.35020242914,台北市災害應變中心,25.02866111,121.56611670000001
451,301,7,148986.35020242914,林森長春路口,25.055062,121.525383
452,399,7,148986.35020242914,和平龍泉街口,25.026404,121.52946000000001
453,308,7,148986.35020242914,西松高中,25.055672,121.567127
454,25,7,148986.35020242914,永吉松信路口,25.04543,121.57205
455,387,7,148986.35020242914,吳興街260巷,25.0261,121.56316000000001
456,62,7,148986.35020242914,南昌公園,25.026826999999997,121.52025800000001
457,71,7,148986.35020242914,捷運信義安和站(4號出口),25.032985,121.554204
458,108,7,148986.35020242914,臺北孔廟,25.073306,121.51584299999999
459,270,7,148986.35020242914,雨農國小,25.105429,121.52921699999999
460,54,7,148986.35020242914,臺北市立圖書館(總館),25.028798000000002,121.538073
461,138,7,148986.35020242914,捷運永春站(2號出口),25.040557999999997,121.575372
462,81,7,148986.35020242914,捷運台電大樓站(2號出口),25.020547,121.528552
463,332,7,148986.35020242914,捷運中山站(2號出口),25.05225,121.52193
464,13,7,148986.35020242914,福德公園,25.03809,121.58367
465,241,7,148986.35020242914,林口公園,25.038943,121.579146
466,35,7,148986.35020242914,捷運行天宮站(3號出口),25.059978,121.533302
467,66,7,148986.35020242914,師範大學公館校區,25.007528,121.53718799999999
468,112,7,148986.35020242914,捷運新北投站,25.137456,121.503124
469,11,7,148986.35020242914,三張犁,25.034937,121.55762
470,14,7,148986.35020242914,榮星花園,25.064239999999998,121.54037
471,181,7,148986.35020242914,建國和平路口,25.02585,121.537383
472,22,7,148986.35020242914,松山車站,25.048824,121.57845
473,133,7,148986.35020242914,蘭興公園,25.111839,121.525888
474,223,7,148986.35020242914,清江國小,25.1274,121.507267
475,249,7,148986.35020242914,中華桂林路口,25.037706,121.506624
476,110,7,148986.35020242914,文湖國小,25.086376,121.56088799999999
477,20,7,148986.35020242914,捷運科技大樓站,25.025896,121.54329299999999
478,314,7,148986.35020242914,敦化長春路口,25.053614000000003,121.54871999999999
479,26,7,148986.35020242914,捷運昆陽站(1號出口),25.050142,121.592375
480,275,7,148986.35020242914,西本願寺廣場,25.040988,121.50768799999999
481,285,7,148986.35020242914,螢橋國小,25.025966,121.51377
482,219,7,148986.35020242914,大理高中,25.031147,121.49073999999999
483,339,7,148986.35020242914,重慶國中,25.07581,121.51816000000001
484,89,7,148986.35020242914,和平重慶路口,25.027323000000003,121.51638500000001
485,55,7,148986.35020242914,臺北田徑場,25.049505,121.54940800000001
486,120,7,148986.35020242914,捷運龍山寺站(1號出口),25.035479000000002,121.50026000000001
487,30,7,148986.35020242914,基隆長興路口,25.017054,121.544352
488,221,7,148986.35020242914,泰和公園,25.019276,121.57106999999999
489,83,7,148986.35020242914,捷運大安森林公園站,25.033344,121.534236
490,12,7,148986.35020242914,臺北醫學大學,25.026679,121.561747
491,49,7,148986.35020242914,龍門廣場,25.040901,121.548252
492,175,7,148986.35020242914,捷運南京復興站(5號出口),25.051617999999998,121.544847
493,93,7,148986.35020242914,吳興公車總站,25.023877,121.56983600000001
494,117,7,148986.35020242914,捷運北投站,25.132581,121.498618
495,152,7,148986.35020242914,百齡國小,25.08521,121.519175
496,46,7,148986.35020242914,南港國小,25.056504,121.61138899999999
497,210,7,148986.35020242914,樂群二敬業四路口,25.079766,121.55813500000001
498,45,7,148986.35020242914,捷運公館站(2號出口),25.01476,121.53453799999998
499,291,7,148986.35020242914,捷運松山站(3號出口),25.049616,121.577459
500,78,7,148986.35020242914,捷運圓山站(2號出口),25.071824,121.519287
501,94,7,148986.35020242914,捷運景美站,24.993254,121.541059
502,202,7,148986.35020242914,捷運關渡站,25.124646,121.46733600000002
